{
  "sourceFile": "전체_도시철도역사정보_20250930.xlsx",
  "count": 1090,
  "items": [
    {
      "name": "청량리(서울시립대입구)",
      "line": "1호선",
      "lat": 37.580148,
      "lng": 127.045063,
      "address": "서울특별시 동대문구 왕산로 지하205(전농동)"
    },
    {
      "name": "제기동",
      "line": "1호선",
      "lat": 37.578116,
      "lng": 127.034902,
      "address": "서울특별시 동대문구 왕산로 지하93(제기동)"
    },
    {
      "name": "신설동",
      "line": "1호선",
      "lat": 37.576117,
      "lng": 127.02471,
      "address": "서울특별시 동대문구 왕산로 지하1(신설동)"
    },
    {
      "name": "동묘앞",
      "line": "1호선",
      "lat": 37.573265,
      "lng": 127.016459,
      "address": "서울특별시 종로구 종로 359(숭인동)"
    },
    {
      "name": "동대문",
      "line": "1호선",
      "lat": 37.571646,
      "lng": 127.01069,
      "address": "서울특별시 종로구 종로 지하302(창신동)"
    },
    {
      "name": "종로5가",
      "line": "1호선",
      "lat": 37.570971,
      "lng": 127.0019,
      "address": "서울특별시 종로구 종로 지하216(종로5가)"
    },
    {
      "name": "종로3가",
      "line": "1호선",
      "lat": 37.570429,
      "lng": 126.992095,
      "address": "서울특별시 종로구 종로 지하129(종로3가)"
    },
    {
      "name": "종각",
      "line": "1호선",
      "lat": 37.570203,
      "lng": 126.983116,
      "address": "서울특별시 종로구 종로 지하55(종로1가)"
    },
    {
      "name": "시청",
      "line": "1호선",
      "lat": 37.565211,
      "lng": 126.977207,
      "address": "서울특별시 중구 세종대로 지하101(정동)"
    },
    {
      "name": "서울역",
      "line": "1호선",
      "lat": 37.55585,
      "lng": 126.972103,
      "address": "서울특별시 중구 세종대로 지하2(남대문로 5가)"
    },
    {
      "name": "시청",
      "line": "2호선",
      "lat": 37.563534,
      "lng": 126.975271,
      "address": "서울특별시 중구 서소문로 지하127(서소문동)"
    },
    {
      "name": "을지로입구",
      "line": "2호선",
      "lat": 37.565998,
      "lng": 126.982569,
      "address": "서울특별시 중구 을지로 지하42(을지로1가)"
    },
    {
      "name": "을지로3가",
      "line": "2호선",
      "lat": 37.566292,
      "lng": 126.990873,
      "address": "서울특별시 중구 을지로 지하106(을지로3가)"
    },
    {
      "name": "을지로4가",
      "line": "2호선",
      "lat": 37.566611,
      "lng": 126.997622,
      "address": "서울특별시 중구 을지로 지하178(을지로4가)"
    },
    {
      "name": "동대문역사문화공원(DDP)",
      "line": "2호선",
      "lat": 37.565609,
      "lng": 127.009083,
      "address": "서울특별시 중구 을지로 지하279(을지로7가)"
    },
    {
      "name": "신당",
      "line": "2호선",
      "lat": 37.565675,
      "lng": 127.0194259,
      "address": "서울특별시 중구 퇴계로 지하431-1(신당동)"
    },
    {
      "name": "상왕십리",
      "line": "2호선",
      "lat": 37.564444,
      "lng": 127.029322,
      "address": "서울특별시 성동구 왕십리로 지하374(하왕십리동)"
    },
    {
      "name": "왕십리(성동구청)",
      "line": "2호선",
      "lat": 37.561289,
      "lng": 127.0370615,
      "address": "서울특별시 성동구 왕십리로 지하300(행당동)"
    },
    {
      "name": "한양대",
      "line": "2호선",
      "lat": 37.555758,
      "lng": 127.0436594,
      "address": "서울특별시 성동구 왕십리로 206(행당동)"
    },
    {
      "name": "뚝섬",
      "line": "2호선",
      "lat": 37.54718,
      "lng": 127.047413,
      "address": "서울특별시 성동구 아차산로 18(성수동1가)"
    },
    {
      "name": "성수",
      "line": "2호선",
      "lat": 37.544628,
      "lng": 127.055983,
      "address": "서울특별시 성동구 아차산로 100(성수동2가)"
    },
    {
      "name": "건대입구",
      "line": "2호선",
      "lat": 37.540408,
      "lng": 127.069231,
      "address": "서울특별시 광진구 아차산로 243(화양동)"
    },
    {
      "name": "구의(광진구청)",
      "line": "2호선",
      "lat": 37.537157,
      "lng": 127.0862124,
      "address": "서울특별시 광진구 아차산로 384-1(구의동)"
    },
    {
      "name": "강변(동서울터미널)",
      "line": "2호선",
      "lat": 37.535161,
      "lng": 127.094684,
      "address": "서울특별시 광진구 강변역로 53(구의동)"
    },
    {
      "name": "잠실나루",
      "line": "2호선",
      "lat": 37.520688,
      "lng": 127.103836,
      "address": "서울특별시 송파구 오금로 20(신천동)"
    },
    {
      "name": "잠실(송파구청)",
      "line": "2호선",
      "lat": 37.513305,
      "lng": 127.100129,
      "address": "서울특별시 송파구 올림픽로 지하265(신천동)"
    },
    {
      "name": "잠실새내",
      "line": "2호선",
      "lat": 37.511653,
      "lng": 127.086224,
      "address": "서울특별시 송파구 올림픽로 지하140(잠실동)"
    },
    {
      "name": "종합운동장",
      "line": "2호선",
      "lat": 37.511128,
      "lng": 127.073841,
      "address": "서울특별시 송파구 올림픽로 지하23(잠실동)"
    },
    {
      "name": "삼성(무역센터)",
      "line": "2호선",
      "lat": 37.508827,
      "lng": 127.063203,
      "address": "서울특별시 강남구 테헤란로 지하538(삼성동)"
    },
    {
      "name": "선릉",
      "line": "2호선",
      "lat": 37.504477,
      "lng": 127.048974,
      "address": "서울특별시 강남구 테헤란로 지하340(삼성동)"
    },
    {
      "name": "역삼",
      "line": "2호선",
      "lat": 37.500658,
      "lng": 127.03643,
      "address": "서울특별시 강남구 테헤란로 지하156(역삼동)"
    },
    {
      "name": "강남",
      "line": "2호선",
      "lat": 37.49805,
      "lng": 127.02795,
      "address": "서울특별시 강남구 강남대로 지하396(역삼동)"
    },
    {
      "name": "교대(법원·검찰청)",
      "line": "2호선",
      "lat": 37.493957,
      "lng": 127.014431,
      "address": "서울특별시 서초구 서초대로 지하294(서초동)"
    },
    {
      "name": "서초",
      "line": "2호선",
      "lat": 37.49191,
      "lng": 127.007685,
      "address": "서울특별시 서초구 서초대로 지하233(서초동)"
    },
    {
      "name": "방배",
      "line": "2호선",
      "lat": 37.481469,
      "lng": 126.997627,
      "address": "서울특별시 서초구 방배로 지하80(방배동)"
    },
    {
      "name": "사당",
      "line": "2호선",
      "lat": 37.476536,
      "lng": 126.981631,
      "address": "서울특별시 동작구 남부순환로 지하2089(사당동)"
    },
    {
      "name": "낙성대(강감찬)",
      "line": "2호선",
      "lat": 37.47713,
      "lng": 126.963583,
      "address": "서울특별시 관악구 남부순환로 지하1928(봉천동)"
    },
    {
      "name": "서울대입구(관악구청)",
      "line": "2호선",
      "lat": 37.481233,
      "lng": 126.952745,
      "address": "서울특별시 관악구 남부순환로 지하1822(봉천동)"
    },
    {
      "name": "봉천",
      "line": "2호선",
      "lat": 37.482416,
      "lng": 126.941696,
      "address": "서울특별시 관악구 남부순환로 지하1721(봉천동)"
    },
    {
      "name": "신림",
      "line": "2호선",
      "lat": 37.484216,
      "lng": 126.929573,
      "address": "서울특별시 관악구 남부순환로 지하1614(신림동)"
    },
    {
      "name": "신대방",
      "line": "2호선",
      "lat": 37.487604,
      "lng": 126.913479,
      "address": "서울특별시 동작구 대림로 2(신대방동)"
    },
    {
      "name": "구로디지털단지",
      "line": "2호선",
      "lat": 37.4852931,
      "lng": 126.901456,
      "address": "서울특별시 구로구 도림천로 477(구로동)"
    },
    {
      "name": "대림(구로구청)",
      "line": "2호선",
      "lat": 37.4932826,
      "lng": 126.8949793,
      "address": "서울특별시 구로구 도림천로 351(구로동)"
    },
    {
      "name": "신도림",
      "line": "2호선",
      "lat": 37.508815,
      "lng": 126.891222,
      "address": "서울특별시 구로구 새말로 지하 117-21(신도림동)"
    },
    {
      "name": "문래",
      "line": "2호선",
      "lat": 37.517993,
      "lng": 126.894766,
      "address": "서울특별시 영등포구 당산로 지하28(문래동3가)"
    },
    {
      "name": "영등포구청",
      "line": "2호선",
      "lat": 37.525766,
      "lng": 126.896627,
      "address": "서울특별시 영등포구 당산로 지하121(당산동3가)"
    },
    {
      "name": "당산",
      "line": "2호선",
      "lat": 37.534807,
      "lng": 126.902611,
      "address": "서울특별시 영등포구 당산로 229(당산동6가)"
    },
    {
      "name": "합정",
      "line": "2호선",
      "lat": 37.550025,
      "lng": 126.914557,
      "address": "서울특별시 마포구 양화로 지하55(서교동)"
    },
    {
      "name": "홍대입구",
      "line": "2호선",
      "lat": 37.556748,
      "lng": 126.923643,
      "address": "서울특별시 마포구 양화로 지하160(동교동)"
    },
    {
      "name": "신촌(지하)",
      "line": "2호선",
      "lat": 37.555153,
      "lng": 126.93689,
      "address": "서울특별시 마포구 신촌로 지하90(노고산동)"
    },
    {
      "name": "이대",
      "line": "2호선",
      "lat": 37.556734,
      "lng": 126.945897,
      "address": "서울특별시 마포구 신촌로 지하180(염리동)"
    },
    {
      "name": "아현",
      "line": "2호선",
      "lat": 37.557407,
      "lng": 126.956079,
      "address": "서울특별시 마포구 신촌로 지하270(아현동)"
    },
    {
      "name": "충정로(경기대입구)",
      "line": "2호선",
      "lat": 37.559742,
      "lng": 126.964455,
      "address": "서울특별시 서대문구 서소문로 지하17(충정로3가)"
    },
    {
      "name": "용답",
      "line": "2호선",
      "lat": 37.562066,
      "lng": 127.05087863,
      "address": "서울특별시 성동구 용답길 86(용답동)"
    },
    {
      "name": "신답",
      "line": "2호선",
      "lat": 37.569847,
      "lng": 127.047048,
      "address": "서울특별시 성동구 천호대로 232(용답동)"
    },
    {
      "name": "용두(동대문구청)",
      "line": "2호선",
      "lat": 37.574012,
      "lng": 127.03811,
      "address": "서울특별시 동대문구 천호대로 지하129(용두동)"
    },
    {
      "name": "신설동",
      "line": "2호선",
      "lat": 37.574653,
      "lng": 127.025158,
      "address": "서울특별시 동대문구 왕산로 지하 1(신설동)"
    },
    {
      "name": "도림천",
      "line": "2호선",
      "lat": 37.5145589,
      "lng": 126.882586,
      "address": "서울특별시 구로구 경인로67길 160(신도림동)"
    },
    {
      "name": "양천구청",
      "line": "2호선",
      "lat": 37.5123294,
      "lng": 126.865593,
      "address": "서울특별시 양천구 목동로3길 지하33(신정동)"
    },
    {
      "name": "신정네거리",
      "line": "2호선",
      "lat": 37.520218,
      "lng": 126.852849,
      "address": "서울특별시 양천구 중앙로 지하261(신정동)"
    },
    {
      "name": "지축",
      "line": "3호선",
      "lat": 37.648151,
      "lng": 126.913751,
      "address": "경기도 고양시 덕양구 삼송로 300(지축동)"
    },
    {
      "name": "구파발",
      "line": "3호선",
      "lat": 37.636612,
      "lng": 126.918827,
      "address": "서울특별시 은평구 진관2로 지하15-25 (진관동)"
    },
    {
      "name": "연신내",
      "line": "3호선",
      "lat": 37.619295,
      "lng": 126.920959,
      "address": "서울특별시 은평구 통일로 지하849(갈현동)"
    },
    {
      "name": "불광",
      "line": "3호선",
      "lat": 37.610154,
      "lng": 126.930183,
      "address": "서울특별시 은평구 통일로 지하723-1(대조동)"
    },
    {
      "name": "녹번",
      "line": "3호선",
      "lat": 37.600882,
      "lng": 126.935758,
      "address": "서울특별시 은평구 통일로 지하602-1(녹번동)"
    },
    {
      "name": "홍제",
      "line": "3호선",
      "lat": 37.588851,
      "lng": 126.944092,
      "address": "서울특별시 서대문구 통일로 지하440-1(홍제동)"
    },
    {
      "name": "무악재",
      "line": "3호선",
      "lat": 37.582658,
      "lng": 126.950131,
      "address": "서울특별시 서대문구 통일로 지하361(홍제동)"
    },
    {
      "name": "독립문",
      "line": "3호선",
      "lat": 37.574534,
      "lng": 126.957902,
      "address": "서울특별시 서대문구 통일로 지하247(현저동)"
    },
    {
      "name": "경복궁(정부서울청사)",
      "line": "3호선",
      "lat": 37.575844,
      "lng": 126.973576,
      "address": "서울특별시 종로구 사직로 지하130(적선동)"
    },
    {
      "name": "안국",
      "line": "3호선",
      "lat": 37.576562,
      "lng": 126.98547,
      "address": "서울특별시 종로구 율곡로 지하62(안국동)"
    },
    {
      "name": "종로3가",
      "line": "3호선",
      "lat": 37.571537,
      "lng": 126.991837,
      "address": "서울특별시 종로구 돈화문로 지하30(묘동)"
    },
    {
      "name": "을지로3가",
      "line": "3호선",
      "lat": 37.566299,
      "lng": 126.992616,
      "address": "서울특별시 중구 을지로 지하129(을지로3가)"
    },
    {
      "name": "충무로",
      "line": "3호선",
      "lat": 37.561382,
      "lng": 126.994173,
      "address": "서울특별시 중구 퇴계로 지하214(필동2가)"
    },
    {
      "name": "동대입구",
      "line": "3호선",
      "lat": 37.55906,
      "lng": 127.005273,
      "address": "서울특별시 중구 동호로 지하256(장충동2가)"
    },
    {
      "name": "약수",
      "line": "3호선",
      "lat": 37.554554,
      "lng": 127.010858,
      "address": "서울특별시 중구 다산로 지하122(신당동)"
    },
    {
      "name": "금호",
      "line": "3호선",
      "lat": 37.548269,
      "lng": 127.015785,
      "address": "서울특별시 성동구 동호로 지하104(금호동4가)"
    },
    {
      "name": "옥수",
      "line": "3호선",
      "lat": 37.541653,
      "lng": 127.017303,
      "address": "서울특별시 성동구 동호로 21(옥수동)"
    },
    {
      "name": "압구정",
      "line": "3호선",
      "lat": 37.526169,
      "lng": 127.028502,
      "address": "서울특별시 강남구 압구정로 지하172(신사동)"
    },
    {
      "name": "신사",
      "line": "3호선",
      "lat": 37.516438,
      "lng": 127.020247,
      "address": "서울특별시 강남구 도산대로 지하102(신사동)"
    },
    {
      "name": "잠원",
      "line": "3호선",
      "lat": 37.512989,
      "lng": 127.011613,
      "address": "서울특별시 서초구 잠원로4길 지하46(잠원동)"
    },
    {
      "name": "고속터미널",
      "line": "3호선",
      "lat": 37.504953,
      "lng": 127.004916,
      "address": "서울특별시 서초구 신반포로 지하188(반포동)"
    },
    {
      "name": "교대(법원·검찰청)",
      "line": "3호선",
      "lat": 37.49306,
      "lng": 127.013796,
      "address": "서울특별시 서초구 서초대로 지하294(서초동)"
    },
    {
      "name": "남부터미널(예술의전당)",
      "line": "3호선",
      "lat": 37.48494,
      "lng": 127.016289,
      "address": "서울특별시 서초구 서초중앙로 지하31(서초동)"
    },
    {
      "name": "양재(서초구청)",
      "line": "3호선",
      "lat": 37.48458,
      "lng": 127.03423,
      "address": "서울특별시 서초구 남부순환로 지하2585(서초동)"
    },
    {
      "name": "매봉",
      "line": "3호선",
      "lat": 37.487114,
      "lng": 127.046907,
      "address": "서울특별시 강남구 남부순환로 지하2744(도곡동)"
    },
    {
      "name": "도곡",
      "line": "3호선",
      "lat": 37.491129,
      "lng": 127.055694,
      "address": "서울특별시 강남구 남부순환로 지하2814(도곡동)"
    },
    {
      "name": "대치",
      "line": "3호선",
      "lat": 37.494601,
      "lng": 127.063449,
      "address": "서울특별시 강남구 남부순환로 지하2952(대치동)"
    },
    {
      "name": "학여울",
      "line": "3호선",
      "lat": 37.496787,
      "lng": 127.0708601,
      "address": "서울특별시 강남구 남부순환로 지하3104(대치동)"
    },
    {
      "name": "대청",
      "line": "3호선",
      "lat": 37.493607,
      "lng": 127.079526,
      "address": "서울특별시 강남구 일원로 지하2(일원동)"
    },
    {
      "name": "일원",
      "line": "3호선",
      "lat": 37.48389,
      "lng": 127.08416,
      "address": "서울특별시 강남구 일원로 지하121(일원동)"
    },
    {
      "name": "수서",
      "line": "3호선",
      "lat": 37.4875,
      "lng": 127.101924,
      "address": "서울특별시 강남구 광평로 지하270(수서동)"
    },
    {
      "name": "가락시장",
      "line": "3호선",
      "lat": 37.492318,
      "lng": 127.1177,
      "address": "서울특별시 송파구 송파대로 지하257(가락동)"
    },
    {
      "name": "경찰병원",
      "line": "3호선",
      "lat": 37.495754,
      "lng": 127.124198,
      "address": "서울특별시 송파구 중대로 지하149(가락동)"
    },
    {
      "name": "오금",
      "line": "3호선",
      "lat": 37.502288,
      "lng": 127.128344,
      "address": "서울특별시 송파구 오금로 지하321(오금동)"
    },
    {
      "name": "불암산",
      "line": "4호선",
      "lat": 37.67009,
      "lng": 127.079004,
      "address": "서울특별시 노원구 상계로 305(상계동)"
    },
    {
      "name": "상계",
      "line": "4호선",
      "lat": 37.660576,
      "lng": 127.073199,
      "address": "서울특별시 노원구 상계로 182(상계동)"
    },
    {
      "name": "노원",
      "line": "4호선",
      "lat": 37.656274,
      "lng": 127.063183,
      "address": "서울특별시 노원구 상계로 69-1(상계동)"
    },
    {
      "name": "창동",
      "line": "4호선",
      "lat": 37.653315,
      "lng": 127.048304,
      "address": "서울특별시 도봉구 마들로11길 77(창동)"
    },
    {
      "name": "쌍문",
      "line": "4호선",
      "lat": 37.648274,
      "lng": 127.034381,
      "address": "서울특별시 도봉구 도봉로 지하 486-1(창동)"
    },
    {
      "name": "수유(강북구청)",
      "line": "4호선",
      "lat": 37.637727,
      "lng": 127.025371,
      "address": "서울특별시 강북구 도봉로 지하338(수유동)"
    },
    {
      "name": "미아(서울사이버대학)",
      "line": "4호선",
      "lat": 37.626435,
      "lng": 127.026151,
      "address": "서울특별시 강북구 도봉로 지하198(미아동)"
    },
    {
      "name": "미아사거리",
      "line": "4호선",
      "lat": 37.613276,
      "lng": 127.030083,
      "address": "서울특별시 강북구 도봉로 지하50(미아동)"
    },
    {
      "name": "길음",
      "line": "4호선",
      "lat": 37.603387,
      "lng": 127.025053,
      "address": "서울특별시 성북구 동소문로 지하248(길음동)"
    },
    {
      "name": "성신여대입구(돈암)",
      "line": "4호선",
      "lat": 37.592882,
      "lng": 127.016908,
      "address": "서울특별시 성북구 동소문로 지하102(동선동4가)"
    },
    {
      "name": "한성대입구(삼선교)",
      "line": "4호선",
      "lat": 37.58838,
      "lng": 127.005951,
      "address": "서울특별시 성북구 삼선교로 지하1(삼선동1가)"
    },
    {
      "name": "혜화",
      "line": "4호선",
      "lat": 37.582116,
      "lng": 127.001929,
      "address": "서울특별시 종로구 대학로 지하120(명륜4가)"
    },
    {
      "name": "동대문",
      "line": "4호선",
      "lat": 37.57099,
      "lng": 127.00925,
      "address": "서울특별시 종로구 율곡로 지하308(종로6가)"
    },
    {
      "name": "동대문역사문화공원(DDP)",
      "line": "4호선",
      "lat": 37.565141,
      "lng": 127.007808,
      "address": "서울특별시 중구 장충단로 지하230(광희동2가)"
    },
    {
      "name": "충무로",
      "line": "4호선",
      "lat": 37.561352,
      "lng": 126.994573,
      "address": "서울특별시 중구 퇴계로 지하214(필동2가)"
    },
    {
      "name": "명동",
      "line": "4호선",
      "lat": 37.560955,
      "lng": 126.986271,
      "address": "서울특별시 중구 퇴계로 지하126(충무로2가)"
    },
    {
      "name": "회현(남대문시장)",
      "line": "4호선",
      "lat": 37.558698,
      "lng": 126.978346,
      "address": "서울특별시 중구 퇴계로 지하54(남창동)"
    },
    {
      "name": "서울역",
      "line": "4호선",
      "lat": 37.553172,
      "lng": 126.972706,
      "address": "서울특별시 용산구 한강대로 지하392(동자동)"
    },
    {
      "name": "숙대입구(갈월)",
      "line": "4호선",
      "lat": 37.5447834,
      "lng": 126.9721,
      "address": "서울특별시 용산구 한강대로 지하306(갈월동)"
    },
    {
      "name": "삼각지(전쟁기념관)",
      "line": "4호선",
      "lat": 37.534457,
      "lng": 126.972992,
      "address": "서울특별시 용산구 한강대로 지하180(한강로1가)"
    },
    {
      "name": "신용산",
      "line": "4호선",
      "lat": 37.52919,
      "lng": 126.96858,
      "address": "서울특별시 용산구 한강대로 지하112(한강로2가)"
    },
    {
      "name": "이촌(국립중앙박물관)",
      "line": "4호선",
      "lat": 37.52919,
      "lng": 126.9679818,
      "address": "서울특별시 용산구 서빙고로 지하83(용산동5가)"
    },
    {
      "name": "동작(현충원)",
      "line": "4호선",
      "lat": 37.503567,
      "lng": 126.980171,
      "address": "서울특별시 동작구 현충로 257(동작동)"
    },
    {
      "name": "총신대입구(이수)",
      "line": "4호선",
      "lat": 37.487521,
      "lng": 126.982309,
      "address": "서울특별시 동작구 동작대로 지하117(사당동)"
    },
    {
      "name": "사당",
      "line": "4호선",
      "lat": 37.476263,
      "lng": 126.981636,
      "address": "서울특별시 동작구  동작대로 지하3(사당동)"
    },
    {
      "name": "남태령",
      "line": "4호선",
      "lat": 37.464339,
      "lng": 126.989081,
      "address": "서울특별시 서초구 과천대로 지하816(방배동)"
    },
    {
      "name": "방화",
      "line": "5호선",
      "lat": 37.577669,
      "lng": 126.812822,
      "address": "서울특별시 강서구 금낭화로 지하132(방화동)"
    },
    {
      "name": "개화산",
      "line": "5호선",
      "lat": 37.572458,
      "lng": 126.806838,
      "address": "서울특별시 강서구 양천로 22(방화동)"
    },
    {
      "name": "김포공항",
      "line": "5호선",
      "lat": 37.56217,
      "lng": 126.801273,
      "address": "서울특별시 강서구 하늘길 지하77(방화동)"
    },
    {
      "name": "송정",
      "line": "5호선",
      "lat": 37.561201,
      "lng": 126.812052,
      "address": "서울특별시 강서구 공항대로 지하33(공항동)"
    },
    {
      "name": "마곡",
      "line": "5호선",
      "lat": 37.55865,
      "lng": 126.837693,
      "address": "서울특별시 강서구 공항대로 지하163(마곡동)"
    },
    {
      "name": "발산",
      "line": "5호선",
      "lat": 37.562182,
      "lng": 126.82693,
      "address": "서울특별시 강서구 공항대로 지하267(마곡동)"
    },
    {
      "name": "우장산",
      "line": "5호선",
      "lat": 37.548864,
      "lng": 126.83633,
      "address": "서울특별시 강서구 강서로 지하262(화곡동)"
    },
    {
      "name": "화곡",
      "line": "5호선",
      "lat": 37.541585,
      "lng": 126.840436,
      "address": "서울특별시 강서구 화곡로 지하168(화곡동)"
    },
    {
      "name": "까치산",
      "line": "5호선",
      "lat": 37.53221,
      "lng": 126.846466,
      "address": "서울특별시 강서구 강서로 지하54(화곡동)"
    },
    {
      "name": "신정(은행정)",
      "line": "5호선",
      "lat": 37.525001,
      "lng": 126.856176,
      "address": "서울특별시 양천구 오목로 지하179(신정동)"
    },
    {
      "name": "목동",
      "line": "5호선",
      "lat": 37.526088,
      "lng": 126.864296,
      "address": "서울특별시 양천구 오목로 지하245(목동)"
    },
    {
      "name": "오목교(목동운동장앞)",
      "line": "5호선",
      "lat": 37.524557,
      "lng": 126.875049,
      "address": "서울특별시 양천구 오목로 지하342(목동)"
    },
    {
      "name": "양평",
      "line": "5호선",
      "lat": 37.525614,
      "lng": 126.886177,
      "address": "서울특별시 영등포구 양산로 지하21(양평동2가)"
    },
    {
      "name": "영등포구청",
      "line": "5호선",
      "lat": 37.524209,
      "lng": 126.895022,
      "address": "서울특별시 영등포구 양산로 지하116(당산동3가)"
    },
    {
      "name": "영등포시장",
      "line": "5호선",
      "lat": 37.52276,
      "lng": 126.905143,
      "address": "서울특별시 영등포구 양산로 지하200(영등포동5가)"
    },
    {
      "name": "신길",
      "line": "5호선",
      "lat": 37.51763,
      "lng": 126.914886,
      "address": "서울특별시 영등포구 경인로114가길 지하9(영등포동1가)"
    },
    {
      "name": "여의도",
      "line": "5호선",
      "lat": 37.521678,
      "lng": 126.924318,
      "address": "서울특별시 영등포구 여의나루로 지하40(여의도동)"
    },
    {
      "name": "여의나루",
      "line": "5호선",
      "lat": 37.527045,
      "lng": 126.932807,
      "address": "서울특별시 영등포구 여의동로 지하343(여의도동)"
    },
    {
      "name": "마포",
      "line": "5호선",
      "lat": 37.539718,
      "lng": 126.946043,
      "address": "서울특별시 마포구 마포대로 지하33(도화동)"
    },
    {
      "name": "공덕",
      "line": "5호선",
      "lat": 37.544005,
      "lng": 126.951058,
      "address": "서울특별시 마포구 마포대로 지하100(공덕동)"
    },
    {
      "name": "애오개",
      "line": "5호선",
      "lat": 37.553592,
      "lng": 126.956733,
      "address": "서울특별시 마포구 마포대로 지하210(아현동)"
    },
    {
      "name": "충정로(경기대입구)",
      "line": "5호선",
      "lat": 37.560061,
      "lng": 126.962783,
      "address": "서울특별시 서대문구 충정로 지하 28-1(충정로3가)"
    },
    {
      "name": "서대문",
      "line": "5호선",
      "lat": 37.565812,
      "lng": 126.966639,
      "address": "서울특별시 종로구 통일로 지하126(평동)"
    },
    {
      "name": "광화문(세종문화회관)",
      "line": "5호선",
      "lat": 37.571645,
      "lng": 126.976568,
      "address": "서울특별시 종로구 세종대로 지하172(세종로)"
    },
    {
      "name": "종로3가(탑골공원)",
      "line": "5호선",
      "lat": 37.572546,
      "lng": 126.990447,
      "address": "서울특별시 종로구 돈화문로11길 지하 26(돈의동)"
    },
    {
      "name": "을지로4가",
      "line": "5호선",
      "lat": 37.56728,
      "lng": 126.998127,
      "address": "서울특별시 중구 창경궁로 지하51(주교동)"
    },
    {
      "name": "동대문역사문화공원(DDP)",
      "line": "5호선",
      "lat": 37.564682,
      "lng": 127.00533,
      "address": "서울특별시 중구 마른내로 지하162(광희동1가)"
    },
    {
      "name": "청구",
      "line": "5호선",
      "lat": 37.560237,
      "lng": 127.01379,
      "address": "서울특별시 중구 청구로 지하77(신당동)"
    },
    {
      "name": "신금호",
      "line": "5호선",
      "lat": 37.554504,
      "lng": 127.020403,
      "address": "서울특별시 성동구 금호로 지하154(금호동2가)"
    },
    {
      "name": "행당",
      "line": "5호선",
      "lat": 37.557297,
      "lng": 127.029482,
      "address": "서울특별시 성동구 행당로 지하89(행당동)"
    },
    {
      "name": "왕십리(성동구청)",
      "line": "5호선",
      "lat": 37.56197,
      "lng": 127.037264,
      "address": "서울특별시 성동구 왕십리로 지하300(행당동)"
    },
    {
      "name": "마장",
      "line": "5호선",
      "lat": 37.566066,
      "lng": 127.042921,
      "address": "서울특별시 성동구 마장로 지하296(마장동)"
    },
    {
      "name": "답십리",
      "line": "5호선",
      "lat": 37.566833,
      "lng": 127.05266,
      "address": "서울특별시 성동구 천호대로 지하300(용답동)"
    },
    {
      "name": "장한평",
      "line": "5호선",
      "lat": 37.561438,
      "lng": 127.064601,
      "address": "서울특별시 동대문구 천호대로 지하405(장안동)"
    },
    {
      "name": "군자(능동)",
      "line": "5호선",
      "lat": 37.557102,
      "lng": 127.079559,
      "address": "서울특별시 광진구 천호대로 지하550(능동)"
    },
    {
      "name": "아차산(어린이대공원후문)",
      "line": "5호선",
      "lat": 37.552005,
      "lng": 127.089609,
      "address": "서울특별시 광진구 천호대로 지하657(능동)"
    },
    {
      "name": "광나루(장신대)",
      "line": "5호선",
      "lat": 37.545301,
      "lng": 127.103478,
      "address": "서울특별시 광진구 아차산로 지하571(광장동)"
    },
    {
      "name": "천호(풍납토성)",
      "line": "5호선",
      "lat": 37.538566,
      "lng": 127.123539,
      "address": "서울특별시 강동구 천호대로 지하997(천호동)"
    },
    {
      "name": "강동",
      "line": "5호선",
      "lat": 37.53581,
      "lng": 127.13249,
      "address": "서울특별시 강동구 천호대로 지하1097(천호동)"
    },
    {
      "name": "길동",
      "line": "5호선",
      "lat": 37.538022,
      "lng": 127.140085,
      "address": "서울특별시 강동구 양재대로 지하1480(길동)"
    },
    {
      "name": "굽은다리(강동구민회관앞)",
      "line": "5호선",
      "lat": 37.545442,
      "lng": 127.142844,
      "address": "서울특별시 강동구 양재대로 지하1572(명일동)"
    },
    {
      "name": "명일",
      "line": "5호선",
      "lat": 37.551317,
      "lng": 127.144002,
      "address": "서울특별시 강동구 양재대로 지하1632(명일동)"
    },
    {
      "name": "고덕",
      "line": "5호선",
      "lat": 37.555002,
      "lng": 127.154214,
      "address": "서울특별시 강동구 고덕로 지하253(고덕동)"
    },
    {
      "name": "상일동",
      "line": "5호선",
      "lat": 37.556714,
      "lng": 127.166381,
      "address": "서울특별시 강동구 고덕로 지하359(상일동)"
    },
    {
      "name": "강일",
      "line": "5호선",
      "lat": 37.557521,
      "lng": 127.176018,
      "address": "서울특별시 강동구 고덕로 지하456(강일동)"
    },
    {
      "name": "미사",
      "line": "5호선",
      "lat": 37.56309,
      "lng": 127.192954,
      "address": "경기도 하남시 미사강변동로 지하90(망월동)"
    },
    {
      "name": "하남풍산",
      "line": "5호선",
      "lat": 37.552201,
      "lng": 127.203897,
      "address": "경기도 하남시 덕풍서로 지하50(덕풍동)"
    },
    {
      "name": "하남시청(덕풍∙신장)",
      "line": "5호선",
      "lat": 37.541723,
      "lng": 127.206901,
      "address": "경기도 하남시 하남대로 지하820(덕풍동)"
    },
    {
      "name": "하남검단산",
      "line": "5호선",
      "lat": 37.539729,
      "lng": 127.223427,
      "address": "경기도 하남시 대청로 지하100(창우동)"
    },
    {
      "name": "둔촌동",
      "line": "5호선",
      "lat": 37.527787,
      "lng": 127.136219,
      "address": "서울특별시 강동구 양재대로 지하1369(둔촌동)"
    },
    {
      "name": "올림픽공원(한국체대)",
      "line": "5호선",
      "lat": 37.516217,
      "lng": 127.130957,
      "address": "서울특별시 송파구 양재대로 지하1233(방이동)"
    },
    {
      "name": "방이",
      "line": "5호선",
      "lat": 37.508752,
      "lng": 127.126054,
      "address": "서울특별시 송파구 양재대로 지하1127(방이동)"
    },
    {
      "name": "오금",
      "line": "5호선",
      "lat": 37.502228,
      "lng": 127.127701,
      "address": "서울특별시 송파구 오금로 지하321(오금동)"
    },
    {
      "name": "개롱",
      "line": "5호선",
      "lat": 37.498097,
      "lng": 127.134817,
      "address": "서울특별시 송파구 오금로 지하402(가락동)"
    },
    {
      "name": "거여",
      "line": "5호선",
      "lat": 37.493208,
      "lng": 127.143983,
      "address": "서울특별시 송파구 오금로 지하499(거여동)"
    },
    {
      "name": "마천",
      "line": "5호선",
      "lat": 37.494972,
      "lng": 127.152784,
      "address": "서울특별시 송파구 마천로57길 지하7(마천동)"
    },
    {
      "name": "응암",
      "line": "6호선",
      "lat": 37.59859,
      "lng": 126.915583,
      "address": "서울특별시 은평구 증산로 지하477(신사동)"
    },
    {
      "name": "역촌",
      "line": "6호선",
      "lat": 37.60605,
      "lng": 126.922764,
      "address": "서울특별시 은평구 서오릉로 지하63(녹번동)"
    },
    {
      "name": "불광",
      "line": "6호선",
      "lat": 37.610919,
      "lng": 126.929504,
      "address": "서울특별시 은평구 통일로 지하723-1(대조동)"
    },
    {
      "name": "독바위",
      "line": "6호선",
      "lat": 37.618413,
      "lng": 126.933035,
      "address": "서울특별시 은평구 불광로 지하129-1(불광동)"
    },
    {
      "name": "연신내",
      "line": "6호선",
      "lat": 37.618483,
      "lng": 126.920403,
      "address": "서울특별시 은평구 통일로 지하849(갈현동)"
    },
    {
      "name": "구산",
      "line": "6호선",
      "lat": 37.611196,
      "lng": 126.9172519,
      "address": "서울특별시 은평구 연서로 지하137-1(구산동)"
    },
    {
      "name": "새절(신사)",
      "line": "6호선",
      "lat": 37.591148,
      "lng": 126.913613,
      "address": "서울특별시 은평구 증산로 지하400(신사동)"
    },
    {
      "name": "증산(명지대앞)",
      "line": "6호선",
      "lat": 37.583989,
      "lng": 126.909785,
      "address": "서울특별시 은평구 증산로 지하306(증산동)"
    },
    {
      "name": "디지털미디어시티",
      "line": "6호선",
      "lat": 37.5760805,
      "lng": 126.901343,
      "address": "서울특별시 은평구 수색로 지하175(증산동)"
    },
    {
      "name": "월드컵경기장(성산)",
      "line": "6호선",
      "lat": 37.569439,
      "lng": 126.899077,
      "address": "서울특별시 마포구 월드컵로 지하240(성산동)"
    },
    {
      "name": "마포구청",
      "line": "6호선",
      "lat": 37.563529,
      "lng": 126.903356,
      "address": "서울특별시 마포구 월드컵로 지하190(성산동)"
    },
    {
      "name": "망원",
      "line": "6호선",
      "lat": 37.556031,
      "lng": 126.910129,
      "address": "서울특별시 마포구 월드컵로 지하77(망원동)"
    },
    {
      "name": "합정",
      "line": "6호선",
      "lat": 37.549033,
      "lng": 126.913546,
      "address": "서울특별시 마포구 양화로 지하45(합정동)"
    },
    {
      "name": "상수",
      "line": "6호선",
      "lat": 37.547704,
      "lng": 126.92292,
      "address": "서울특별시 마포구 독막로 지하85(상수동)"
    },
    {
      "name": "광흥창(서강)",
      "line": "6호선",
      "lat": 37.547464,
      "lng": 126.931971,
      "address": "서울특별시 마포구 독막로 지하165(창전동)"
    },
    {
      "name": "대흥(서강대앞)",
      "line": "6호선",
      "lat": 37.547732,
      "lng": 126.942214,
      "address": "서울특별시 마포구 대흥로 지하85(대흥동)"
    },
    {
      "name": "공덕",
      "line": "6호선",
      "lat": 37.543592,
      "lng": 126.951664,
      "address": "서울특별시 마포구 백범로 지하200(공덕동)"
    },
    {
      "name": "효창공원앞",
      "line": "6호선",
      "lat": 37.539279,
      "lng": 126.961348,
      "address": "서울특별시 용산구 백범로 지하287(효창동)"
    },
    {
      "name": "삼각지(전쟁기념관)",
      "line": "6호선",
      "lat": 37.535563,
      "lng": 126.973996,
      "address": "서울특별시 용산구 한강대로 지하185(한강로1가)"
    },
    {
      "name": "녹사평(용산구청)",
      "line": "6호선",
      "lat": 37.53469,
      "lng": 126.98665,
      "address": "서울특별시 용산구 녹사평대로 지하195(용산동4가)"
    },
    {
      "name": "이태원",
      "line": "6호선",
      "lat": 37.534485,
      "lng": 126.994369,
      "address": "서울특별시 용산구 이태원로 지하177(이태원동)"
    },
    {
      "name": "한강진",
      "line": "6호선",
      "lat": 37.53956,
      "lng": 127.001729,
      "address": "서울특별시 용산구 이태원로 지하287(한남동)"
    },
    {
      "name": "버티고개",
      "line": "6호선",
      "lat": 37.547933,
      "lng": 127.006948,
      "address": "서울특별시 중구 다산로 지하38(신당동)"
    },
    {
      "name": "약수",
      "line": "6호선",
      "lat": 37.554087,
      "lng": 127.010237,
      "address": "서울특별시 중구 다산로 지하115(신당동)"
    },
    {
      "name": "청구",
      "line": "6호선",
      "lat": 37.560221,
      "lng": 127.013776,
      "address": "서울특별시 중구 청구로 지하77(신당동)"
    },
    {
      "name": "신당",
      "line": "6호선",
      "lat": 37.566174,
      "lng": 127.016158,
      "address": "서울특별시 중구 다산로 지하260(흥인동)"
    },
    {
      "name": "동묘앞",
      "line": "6호선",
      "lat": 37.572275,
      "lng": 127.015666,
      "address": "서울특별시 종로구 지봉로 지하24(숭인동)"
    },
    {
      "name": "창신",
      "line": "6호선",
      "lat": 37.579772,
      "lng": 127.015246,
      "address": "서울특별시 종로구 지봉로 지하112(창신동)"
    },
    {
      "name": "보문",
      "line": "6호선",
      "lat": 37.585293,
      "lng": 127.019377,
      "address": "서울특별시 성북구 보문로 지하116(보문동1가)"
    },
    {
      "name": "안암(고대병원앞)",
      "line": "6호선",
      "lat": 37.586261,
      "lng": 127.02903,
      "address": "서울특별시 성북구 고려대로 지하89(안암동5가)"
    },
    {
      "name": "고려대(종암)",
      "line": "6호선",
      "lat": 37.59034,
      "lng": 127.03626,
      "address": "서울특별시 성북구 종암로 지하1(종암동)"
    },
    {
      "name": "월곡(동덕여대)",
      "line": "6호선",
      "lat": 37.60192,
      "lng": 127.041492,
      "address": "서울특별시 성북구 월곡로 지하107(하월곡동)"
    },
    {
      "name": "상월곡(한국과학기술연구원)",
      "line": "6호선",
      "lat": 37.606392,
      "lng": 127.048509,
      "address": "서울특별시 성북구 화랑로 지하157(상월곡동)"
    },
    {
      "name": "돌곶이",
      "line": "6호선",
      "lat": 37.610522,
      "lng": 127.056419,
      "address": "서울특별시 성북구 화랑로 지하243(석관동)"
    },
    {
      "name": "석계",
      "line": "6호선",
      "lat": 37.614937,
      "lng": 127.065922,
      "address": "서울특별시 노원구 화랑로 지하 347-1(월계동)"
    },
    {
      "name": "태릉입구",
      "line": "6호선",
      "lat": 37.617319,
      "lng": 127.074741,
      "address": "서울특별시 노원구 동일로 지하 992-1(공릉동)"
    },
    {
      "name": "화랑대(서울여대입구)",
      "line": "6호선",
      "lat": 37.619875,
      "lng": 127.084106,
      "address": "서울특별시 노원구 화랑로 지하510(공릉동)"
    },
    {
      "name": "봉화산(서울의료원)",
      "line": "6호선",
      "lat": 37.617429,
      "lng": 127.0912326,
      "address": "서울특별시 중랑구 신내로 지하232(신내동)"
    },
    {
      "name": "신내",
      "line": "6호선",
      "lat": 37.612571,
      "lng": 127.104326,
      "address": "서울특별시 중랑구 용마산로136길 33 신내차량기지"
    },
    {
      "name": "장암",
      "line": "7호선",
      "lat": 37.70015,
      "lng": 127.053126,
      "address": "경기도 의정부시 동일로 121(장암동)"
    },
    {
      "name": "도봉산",
      "line": "7호선",
      "lat": 37.689131,
      "lng": 127.046548,
      "address": "서울특별시 도봉구 도봉로 964-40(도봉동)"
    },
    {
      "name": "수락산",
      "line": "7호선",
      "lat": 37.677804,
      "lng": 127.055314,
      "address": "서울특별시 노원구 동일로 지하1662(상계동)"
    },
    {
      "name": "마들",
      "line": "7호선",
      "lat": 37.664985,
      "lng": 127.057701,
      "address": "서울특별시 노원구 동일로 지하1530-1(상계동)"
    },
    {
      "name": "노원",
      "line": "7호선",
      "lat": 37.654478,
      "lng": 127.060555,
      "address": "서울특별시 노원구 동일로 지하1409(상계동)"
    },
    {
      "name": "중계",
      "line": "7호선",
      "lat": 37.645052,
      "lng": 127.064084,
      "address": "서울특별시 노원구 동일로 지하1308-1(중계동)"
    },
    {
      "name": "하계",
      "line": "7호선",
      "lat": 37.636363,
      "lng": 127.067999,
      "address": "서울특별시 노원구 동일로 지하1196(하계동)"
    },
    {
      "name": "공릉(서울과학기술대)",
      "line": "7호선",
      "lat": 37.625642,
      "lng": 127.072969,
      "address": "서울특별시 노원구 동일로 지하1074(공릉동)"
    },
    {
      "name": "태릉입구",
      "line": "7호선",
      "lat": 37.618519,
      "lng": 127.075361,
      "address": "서울특별시 노원구 동일로 지하 992-1(공릉동)"
    },
    {
      "name": "먹골",
      "line": "7호선",
      "lat": 37.610638,
      "lng": 127.077719,
      "address": "서울특별시 중랑구 동일로 지하901(묵동)"
    },
    {
      "name": "중화",
      "line": "7호선",
      "lat": 37.602604,
      "lng": 127.079254,
      "address": "서울특별시 중랑구 동일로 지하797(중화동)"
    },
    {
      "name": "상봉",
      "line": "7호선",
      "lat": 37.595673,
      "lng": 127.085708,
      "address": "서울특별시 중랑구 망우로 297(상봉동)"
    },
    {
      "name": "면목",
      "line": "7호선",
      "lat": 37.588671,
      "lng": 127.087503,
      "address": "서울특별시 중랑구 면목로 지하407(면목동)"
    },
    {
      "name": "사가정",
      "line": "7호선",
      "lat": 37.580912,
      "lng": 127.088502,
      "address": "서울특별시 중랑구 사가정로 지하393(면목동)"
    },
    {
      "name": "용마산(용마폭포공원)",
      "line": "7호선",
      "lat": 37.573752,
      "lng": 127.086802,
      "address": "서울특별시 중랑구 용마산로 지하227(면목동)"
    },
    {
      "name": "중곡",
      "line": "7호선",
      "lat": 37.565877,
      "lng": 127.084291,
      "address": "서울특별시 광진구 능동로 지하417(중곡동)"
    },
    {
      "name": "군자(능동)",
      "line": "7호선",
      "lat": 37.557151,
      "lng": 127.079484,
      "address": "서울특별시 광진구 천호대로 지하550(능동)"
    },
    {
      "name": "어린이대공원(세종대)",
      "line": "7호선",
      "lat": 37.547962,
      "lng": 127.07465,
      "address": "서울특별시 광진구 능동로 지하210(화양동)"
    },
    {
      "name": "건대입구",
      "line": "7호선",
      "lat": 37.540882,
      "lng": 127.071103,
      "address": "서울특별시 광진구 능동로 지하110(화양동)"
    },
    {
      "name": "자양(뚝섬한강공원)",
      "line": "7호선",
      "lat": 37.531558,
      "lng": 127.066714,
      "address": "서울특별시 광진구 능동로 10(자양동)"
    },
    {
      "name": "청담",
      "line": "7호선",
      "lat": 37.519097,
      "lng": 127.051851,
      "address": "서울특별시 강남구 학동로 지하508(청담동)"
    },
    {
      "name": "강남구청",
      "line": "7호선",
      "lat": 37.517185,
      "lng": 127.04122,
      "address": "서울특별시 강남구 학동로 지하346(삼성동)"
    },
    {
      "name": "학동",
      "line": "7호선",
      "lat": 37.514262,
      "lng": 127.031738,
      "address": "서울특별시 강남구 학동로 지하180(논현동)"
    },
    {
      "name": "논현",
      "line": "7호선",
      "lat": 37.511108,
      "lng": 127.021385,
      "address": "서울특별시 강남구 학동로 지하102(논현동)"
    },
    {
      "name": "반포",
      "line": "7호선",
      "lat": 37.508171,
      "lng": 127.011717,
      "address": "서울특별시 서초구 신반포로 지하241(잠원동)"
    },
    {
      "name": "고속터미널",
      "line": "7호선",
      "lat": 37.503387,
      "lng": 127.005055,
      "address": "서울특별시 서초구 신반포로 지하188(반포동)"
    },
    {
      "name": "내방",
      "line": "7호선",
      "lat": 37.48764,
      "lng": 126.993541,
      "address": "서울특별시 서초구 서초대로 지하103(방배동)"
    },
    {
      "name": "총신대입구(이수)",
      "line": "7호선",
      "lat": 37.485258,
      "lng": 126.981766,
      "address": "서울특별시 동작구 사당로 지하310(사당동)"
    },
    {
      "name": "남성",
      "line": "7호선",
      "lat": 37.484688,
      "lng": 126.971108,
      "address": "서울특별시 동작구 사당로 지하218(사당동)"
    },
    {
      "name": "숭실대입구(살피재)",
      "line": "7호선",
      "lat": 37.496258,
      "lng": 126.953649,
      "address": "서울특별시 동작구 상도로 지하378(상도동)"
    },
    {
      "name": "상도",
      "line": "7호선",
      "lat": 37.50279,
      "lng": 126.947949,
      "address": "서울특별시 동작구 상도로 지하272(상도1동)"
    },
    {
      "name": "장승배기",
      "line": "7호선",
      "lat": 37.504845,
      "lng": 126.939025,
      "address": "서울특별시 동작구 상도로 지하188(상도동)"
    },
    {
      "name": "신대방삼거리",
      "line": "7호선",
      "lat": 37.499717,
      "lng": 126.928218,
      "address": "서울특별시 동작구 상도로 지하76(대방동)"
    },
    {
      "name": "보라매",
      "line": "7호선",
      "lat": 37.499916,
      "lng": 126.920112,
      "address": "서울특별시 동작구 상도로 지하2(대방동)"
    },
    {
      "name": "신풍",
      "line": "7호선",
      "lat": 37.500107,
      "lng": 126.909806,
      "address": "서울특별시 영등포구 신풍로 지하27(신길동)"
    },
    {
      "name": "대림(구로구청)",
      "line": "7호선",
      "lat": 37.492984,
      "lng": 126.896997,
      "address": "서울특별시 영등포구 도림로 지하137(대림동)"
    },
    {
      "name": "남구로",
      "line": "7호선",
      "lat": 37.486181,
      "lng": 126.887372,
      "address": "서울특별시 구로구 도림로 지하7(구로동)"
    },
    {
      "name": "가산디지털단지",
      "line": "7호선",
      "lat": 37.480376,
      "lng": 126.882704,
      "address": "서울특별시 금천구 벚꽃로 309(가산동)"
    },
    {
      "name": "철산",
      "line": "7호선",
      "lat": 37.47616,
      "lng": 126.868217,
      "address": "경기도 광명시 철산로 지하13(철산동)"
    },
    {
      "name": "광명사거리",
      "line": "7호선",
      "lat": 37.47927,
      "lng": 126.854854,
      "address": "경기도 광명시 오리로 지하980(광명동)"
    },
    {
      "name": "천왕",
      "line": "7호선",
      "lat": 37.486699,
      "lng": 126.838684,
      "address": "서울특별시 구로구 오리로 지하1154(천왕동)"
    },
    {
      "name": "온수(성공회대입구)",
      "line": "7호선",
      "lat": 37.492059,
      "lng": 126.823294,
      "address": "서울특별시 구로구 경인로3길 지하64(온수동)"
    },
    {
      "name": "암사역사공원",
      "line": "8호선",
      "lat": 37.557167,
      "lng": 127.137556,
      "address": "서울시 강동구 아리수로 27번길 2"
    },
    {
      "name": "암사",
      "line": "8호선",
      "lat": 37.550127,
      "lng": 127.127521,
      "address": "서울특별시 강동구 올림픽로 지하776(암사동)"
    },
    {
      "name": "천호(풍납토성)",
      "line": "8호선",
      "lat": 37.53792,
      "lng": 127.123179,
      "address": "서울특별시 강동구 천호대로 지하997(천호동)"
    },
    {
      "name": "강동구청",
      "line": "8호선",
      "lat": 37.530348,
      "lng": 127.120461,
      "address": "서울특별시 강동구 올림픽로 지하550(성내동)"
    },
    {
      "name": "몽촌토성(평화의문)",
      "line": "8호선",
      "lat": 37.517692,
      "lng": 127.11274,
      "address": "서울특별시 송파구 올림픽로 지하383(신천동)"
    },
    {
      "name": "잠실(송파구청)",
      "line": "8호선",
      "lat": 37.514649,
      "lng": 127.104267,
      "address": "서울특별시 송파구 올림픽로 305(신천동)"
    },
    {
      "name": "석촌",
      "line": "8호선",
      "lat": 37.505396,
      "lng": 127.106995,
      "address": "서울특별시 송파구 송파대로 지하439(석촌동)"
    },
    {
      "name": "송파",
      "line": "8호선",
      "lat": 37.49978,
      "lng": 127.11212,
      "address": "서울특별시 송파구 송파대로 지하354(가락동)"
    },
    {
      "name": "가락시장",
      "line": "8호선",
      "lat": 37.493004,
      "lng": 127.118279,
      "address": "서울특별시 송파구 송파대로 지하257(가락동)"
    },
    {
      "name": "문정",
      "line": "8호선",
      "lat": 37.485931,
      "lng": 127.122473,
      "address": "서울특별시 송파구 송파대로 지하179(문정동)"
    },
    {
      "name": "장지",
      "line": "8호선",
      "lat": 37.478609,
      "lng": 127.126229,
      "address": "서울특별시 송파구 송파대로 지하82(장지동)"
    },
    {
      "name": "복정",
      "line": "8호선",
      "lat": 37.471016,
      "lng": 127.126746,
      "address": "서울특별시 송파구 송파대로 지하6(장지동)"
    },
    {
      "name": "남위례",
      "line": "8호선",
      "lat": 37.462839,
      "lng": 127.139047,
      "address": "경기도 성남시 수정구 공원로 601(복정동)"
    },
    {
      "name": "산성",
      "line": "8호선",
      "lat": 37.456886,
      "lng": 127.149927,
      "address": "경기도 성남시 수정구 수정로 지하365(신흥동)"
    },
    {
      "name": "남한산성입구(성남법원·검찰청)",
      "line": "8호선",
      "lat": 37.451568,
      "lng": 127.159845,
      "address": "경기도 성남시 수정구 산성대로 지하445(단대동)"
    },
    {
      "name": "단대오거리",
      "line": "8호선",
      "lat": 37.445057,
      "lng": 127.156735,
      "address": "경기도 성남시 수정구 산성대로 지하365(신흥동)"
    },
    {
      "name": "신흥",
      "line": "8호선",
      "lat": 37.440952,
      "lng": 127.14759,
      "address": "경기도 성남시 수정구 산성대로 지하280(신흥동)"
    },
    {
      "name": "수진",
      "line": "8호선",
      "lat": 37.437575,
      "lng": 127.140936,
      "address": "경기도 성남시 수정구 산성대로 지하200(수진동)"
    },
    {
      "name": "모란",
      "line": "8호선",
      "lat": 37.433988,
      "lng": 127.129921,
      "address": "경기도 성남시 수정구 산성대로 지하100(수진동)"
    },
    {
      "name": "판교역",
      "line": "경강선",
      "lat": 37.394798,
      "lng": 127.111135,
      "address": "경기도 성남시 분당구 판교역로 160"
    },
    {
      "name": "이매역",
      "line": "경강선",
      "lat": 37.394736,
      "lng": 127.127048,
      "address": "경기도 성남시 분당구 성남대로 738"
    },
    {
      "name": "삼동역",
      "line": "경강선",
      "lat": 37.408731,
      "lng": 127.203447,
      "address": "경기도 광주시 순암로 451"
    },
    {
      "name": "경기광주역",
      "line": "경강선",
      "lat": 37.398974,
      "lng": 127.253201,
      "address": "경기도 광주시 광주역로 10 경기광주역사"
    },
    {
      "name": "초월역",
      "line": "경강선",
      "lat": 37.373389,
      "lng": 127.299996,
      "address": "경기도 광주시 초월읍 경충대로 1066"
    },
    {
      "name": "곤지암역",
      "line": "경강선",
      "lat": 37.350525,
      "lng": 127.346186,
      "address": "경기도 광주시 곤지암천로 333"
    },
    {
      "name": "신둔도예촌역",
      "line": "경강선",
      "lat": 37.315499,
      "lng": 127.405251,
      "address": "경기도 이천시 신둔면 남정로 55"
    },
    {
      "name": "이천역",
      "line": "경강선",
      "lat": 37.264222,
      "lng": 127.442135,
      "address": "경기도 이천시 이섭대천로 1063"
    },
    {
      "name": "부발역",
      "line": "경강선",
      "lat": 37.260411,
      "lng": 127.490303,
      "address": "경기도 이천시 부발읍 신아로 87"
    },
    {
      "name": "세종대왕릉역",
      "line": "경강선",
      "lat": 37.293636,
      "lng": 127.570764,
      "address": "경기도 여주시 능서면 양화로 877"
    },
    {
      "name": "여주역",
      "line": "경강선",
      "lat": 37.282881,
      "lng": 127.628571,
      "address": "경기도 여주시 교동로 80(교동 403-1)"
    },
    {
      "name": "성남역",
      "line": "경강선",
      "lat": 37.394709,
      "lng": 127.11949,
      "address": "경기도 성남시 분당구 백현동 545-1"
    },
    {
      "name": "남영역",
      "line": "경부선",
      "lat": 37.540597,
      "lng": 126.971171,
      "address": "서울시 용산구 한강대로 77길 25(갈월동)"
    },
    {
      "name": "용산역",
      "line": "경부선",
      "lat": 37.52989,
      "lng": 126.964775,
      "address": "서울시 용산구 한강대로 23길 55(한강로 3가 40-999)"
    },
    {
      "name": "노량진역",
      "line": "경부선",
      "lat": 37.514072,
      "lng": 126.941671,
      "address": "서울시 동작구 노량진로 151"
    },
    {
      "name": "대방역",
      "line": "경부선",
      "lat": 37.513392,
      "lng": 126.926407,
      "address": "서울시 영등포구 여의대방로 300"
    },
    {
      "name": "영등포역",
      "line": "경부선",
      "lat": 37.515756,
      "lng": 126.907411,
      "address": "서울시 영등포구 경인로 846(영등포동 1가 618-496)"
    },
    {
      "name": "신도림역",
      "line": "경부선",
      "lat": 37.508983,
      "lng": 126.891513,
      "address": "서울시 구로구 새말로 117-21"
    },
    {
      "name": "신길역",
      "line": "경부선",
      "lat": 37.517018,
      "lng": 126.917743,
      "address": "서울시 영등포구 영등포로 327"
    },
    {
      "name": "구로역",
      "line": "경부선",
      "lat": 37.503178,
      "lng": 126.882037,
      "address": "서울시 구로구 구로중앙로 174"
    },
    {
      "name": "가산디지털단지역",
      "line": "경부선",
      "lat": 37.481568,
      "lng": 126.882628,
      "address": "서울시 금천구 벚꽃로 309"
    },
    {
      "name": "금천구청역",
      "line": "경부선",
      "lat": 37.45576,
      "lng": 126.894344,
      "address": "서울시 금천구 시흥대로 63길 91"
    },
    {
      "name": "석수역",
      "line": "경부선",
      "lat": 37.435161,
      "lng": 126.902233,
      "address": "경기도 안양시 만안구 경수대로 1431"
    },
    {
      "name": "관악역",
      "line": "경부선",
      "lat": 37.419578,
      "lng": 126.908476,
      "address": "경기도 안양시 만안구 경수대로 1273번길 46"
    },
    {
      "name": "안양역",
      "line": "경부선",
      "lat": 37.401929,
      "lng": 126.922647,
      "address": "경기도 안양시 만안구 만안로 232"
    },
    {
      "name": "명학역",
      "line": "경부선",
      "lat": 37.384435,
      "lng": 126.935579,
      "address": "경기도 안양시 만안구 만안로 20"
    },
    {
      "name": "금정역",
      "line": "경부선",
      "lat": 37.371957,
      "lng": 126.943411,
      "address": "경기도 군포시 군포로 750"
    },
    {
      "name": "군포역",
      "line": "경부선",
      "lat": 37.353732,
      "lng": 126.948517,
      "address": "경기도 군포시 군포역1길 27"
    },
    {
      "name": "의왕역",
      "line": "경부선",
      "lat": 37.320648,
      "lng": 126.948099,
      "address": "경기도 의왕시 철도박물관로 66(삼동)"
    },
    {
      "name": "성균관대역",
      "line": "경부선",
      "lat": 37.300344,
      "lng": 126.970861,
      "address": "경기도 수원시 장안구 서부로 2149"
    },
    {
      "name": "화서역",
      "line": "경부선",
      "lat": 37.28399,
      "lng": 126.989581,
      "address": "경기도 수원시 팔달구 덕영대로 692"
    },
    {
      "name": "수원역",
      "line": "경부선",
      "lat": 37.266162,
      "lng": 126.999821,
      "address": "경기도 수원시 팔달구 덕영대로 924"
    },
    {
      "name": "독산역",
      "line": "경부선",
      "lat": 37.465994,
      "lng": 126.889508,
      "address": "서울시 금천구 벚꽃로 115"
    },
    {
      "name": "세류역",
      "line": "경부선",
      "lat": 37.244102,
      "lng": 127.013772,
      "address": "경기도 수원시 권선구 정조로 393-1"
    },
    {
      "name": "병점역",
      "line": "경부선",
      "lat": 37.206821,
      "lng": 127.033268,
      "address": "경기도 화성시 떡전골로 97"
    },
    {
      "name": "세마역",
      "line": "경부선",
      "lat": 37.187288,
      "lng": 127.043279,
      "address": "경기도 오산시 세마역로 88"
    },
    {
      "name": "오산대역",
      "line": "경부선",
      "lat": 37.169401,
      "lng": 127.063081,
      "address": "경기도 오산시 청학로 236"
    },
    {
      "name": "오산역",
      "line": "경부선",
      "lat": 37.145472,
      "lng": 127.066708,
      "address": "경기도 오산시 오산동 역광장로 59"
    },
    {
      "name": "진위역",
      "line": "경부선",
      "lat": 37.109771,
      "lng": 127.062342,
      "address": "경기도 평택시 경기대로 1855"
    },
    {
      "name": "송탄역",
      "line": "경부선",
      "lat": 37.075376,
      "lng": 127.054397,
      "address": "경기도 평택시 신장동 송탄공원로 43"
    },
    {
      "name": "서정리역",
      "line": "경부선",
      "lat": 37.056459,
      "lng": 127.052844,
      "address": "경기도 평택시 탄현로 51"
    },
    {
      "name": "평택지제역",
      "line": "경부선",
      "lat": 37.018822,
      "lng": 127.070269,
      "address": "경기도 평택시 경기대로 777"
    },
    {
      "name": "평택역",
      "line": "경부선",
      "lat": 36.990559,
      "lng": 127.085496,
      "address": "경기도 평택시 평택로 51"
    },
    {
      "name": "성환역",
      "line": "경부선",
      "lat": 36.915781,
      "lng": 127.127007,
      "address": "충남 천안시 서북구 성환읍 성환1로 237-5(성환리 449-128)"
    },
    {
      "name": "직산역",
      "line": "경부선",
      "lat": 36.870921,
      "lng": 127.143774,
      "address": "충남 천안시 서북구 직산읍 천안대로 1471-33"
    },
    {
      "name": "두정역",
      "line": "경부선",
      "lat": 36.833791,
      "lng": 127.148905,
      "address": "충남 천안시 서북구 두정로 289(두정동 84-1)"
    },
    {
      "name": "당정역",
      "line": "경부선",
      "lat": 37.34338,
      "lng": 126.948388,
      "address": "경기도 군포시 당정역로 91"
    },
    {
      "name": "서동탄역",
      "line": "경부선",
      "lat": 37.195675,
      "lng": 127.051893,
      "address": "경기도 오산시 외삼미로 15번길 75-60"
    },
    {
      "name": "광명역",
      "line": "경부선",
      "lat": 37.415995,
      "lng": 126.884523,
      "address": "경기도 광명시 광명역로 21"
    },
    {
      "name": "천안역",
      "line": "경부선",
      "lat": 36.810238,
      "lng": 127.146417,
      "address": "충남 천안시 동남구 대흥로 239(대흥동 57-1)"
    },
    {
      "name": "용산역",
      "line": "경원선",
      "lat": 37.52989,
      "lng": 126.964775,
      "address": "서울시 용산구 한강대로 23길 55(한강로 3가 40-999)"
    },
    {
      "name": "이촌역",
      "line": "경원선",
      "lat": 37.522476,
      "lng": 126.973816,
      "address": "서울시 용산구 이촌로 71길 42"
    },
    {
      "name": "서빙고역",
      "line": "경원선",
      "lat": 37.51961,
      "lng": 126.988358,
      "address": "서울시 용산구 서빙고로 238(서빙고동 241-11)"
    },
    {
      "name": "한남역",
      "line": "경원선",
      "lat": 37.529361,
      "lng": 127.008984,
      "address": "서울시 용산구 독서당로6길 12-13(한남동)"
    },
    {
      "name": "옥수역",
      "line": "경원선",
      "lat": 37.540514,
      "lng": 127.018698,
      "address": "서울시 성동구 동호로 지하21(옥수동)"
    },
    {
      "name": "응봉역",
      "line": "경원선",
      "lat": 37.550433,
      "lng": 127.034824,
      "address": "서울시 성동구 고산자로 123(응봉동)"
    },
    {
      "name": "왕십리역",
      "line": "경원선",
      "lat": 37.561728,
      "lng": 127.038405,
      "address": "서울시 성동구 왕십리 광장로 17(행당동)"
    },
    {
      "name": "청량리역",
      "line": "경원선",
      "lat": 37.580543,
      "lng": 127.048077,
      "address": "서울시 동대문구 왕산로 214"
    },
    {
      "name": "회기역",
      "line": "경원선",
      "lat": 37.589602,
      "lng": 127.057936,
      "address": "서울시 동대문구 회기로196(휘경동 317-101)"
    },
    {
      "name": "외대앞역",
      "line": "경원선",
      "lat": 37.596157,
      "lng": 127.063572,
      "address": "서울시 동대문구 휘경로 27(이문동 360-5)"
    },
    {
      "name": "신이문역",
      "line": "경원선",
      "lat": 37.601829,
      "lng": 127.067347,
      "address": "서울시 동대문구 한천로 472(이문로 7)"
    },
    {
      "name": "석계역",
      "line": "경원선",
      "lat": 37.615206,
      "lng": 127.065594,
      "address": "서울시 노원구 화랑로 341(월계동 36-4)"
    },
    {
      "name": "광운대역",
      "line": "경원선",
      "lat": 37.623635,
      "lng": 127.061975,
      "address": "서울시 노원구 석계로 98-2(광운대역)"
    },
    {
      "name": "월계역",
      "line": "경원선",
      "lat": 37.633114,
      "lng": 127.058835,
      "address": "서울시 노원구 월계로 53길 40(월계2동 261)"
    },
    {
      "name": "녹천역",
      "line": "경원선",
      "lat": 37.644599,
      "lng": 127.051406,
      "address": "서울시 도봉구 덕릉로 376(창동)"
    },
    {
      "name": "창동역",
      "line": "경원선",
      "lat": 37.653181,
      "lng": 127.047663,
      "address": "서울시 도봉구 마들로 11길 77(창1동 135-86)"
    },
    {
      "name": "방학역",
      "line": "경원선",
      "lat": 37.667471,
      "lng": 127.044295,
      "address": "서울시 도봉구 도봉로 150다길 3"
    },
    {
      "name": "도봉역",
      "line": "경원선",
      "lat": 37.679441,
      "lng": 127.045521,
      "address": "서울시 도봉구 도봉로 170길 2"
    },
    {
      "name": "도봉산역",
      "line": "경원선",
      "lat": 37.689603,
      "lng": 127.046047,
      "address": "서울시 도봉구 도봉로 964-33"
    },
    {
      "name": "망월사역",
      "line": "경원선",
      "lat": 37.710499,
      "lng": 127.047361,
      "address": "경기도 의정부시 평화로 221"
    },
    {
      "name": "회룡역",
      "line": "경원선",
      "lat": 37.724037,
      "lng": 127.047319,
      "address": "경기도 의정부시 평화로 363"
    },
    {
      "name": "의정부역",
      "line": "경원선",
      "lat": 37.73873,
      "lng": 127.045891,
      "address": "경기도 의정부시 평화로 525"
    },
    {
      "name": "가능역",
      "line": "경원선",
      "lat": 37.748362,
      "lng": 127.044251,
      "address": "경기도 의정부시 평화로 633"
    },
    {
      "name": "녹양역",
      "line": "경원선",
      "lat": 37.759416,
      "lng": 127.042272,
      "address": "경기도 의정부시 평화로 757(녹양동 973)"
    },
    {
      "name": "양주역",
      "line": "경원선",
      "lat": 37.774281,
      "lng": 127.044719,
      "address": "경기도 양주시 평화로 919(남방동 94-1)"
    },
    {
      "name": "덕계역",
      "line": "경원선",
      "lat": 37.818761,
      "lng": 127.056676,
      "address": "경기도 양주시 고덕로 139번길 317"
    },
    {
      "name": "덕정역",
      "line": "경원선",
      "lat": 37.843216,
      "lng": 127.061511,
      "address": "경기도 양주시 화합로 1356"
    },
    {
      "name": "지행역",
      "line": "경원선",
      "lat": 37.892361,
      "lng": 127.055734,
      "address": "경기도 동두천시 평화로 2285(지행동)"
    },
    {
      "name": "동두천중앙역",
      "line": "경원선",
      "lat": 37.901818,
      "lng": 127.056528,
      "address": "경기도 동두천시 동두천로 228(생연동 682)"
    },
    {
      "name": "보산역",
      "line": "경원선",
      "lat": 37.914268,
      "lng": 127.057134,
      "address": "경기도 동두천시 평화로 2539(보산동)"
    },
    {
      "name": "동두천역",
      "line": "경원선",
      "lat": 37.927569,
      "lng": 127.054825,
      "address": "경기도 동두천시 평화로 2687(동두천동 245-210)"
    },
    {
      "name": "소요산역",
      "line": "경원선",
      "lat": 37.948608,
      "lng": 127.061007,
      "address": "경기도 동두천시 평화로 2925(상봉암동 126)"
    },
    {
      "name": "청산역",
      "line": "경원선",
      "lat": 37.995138,
      "lng": 127.074097,
      "address": "경기도 연천군 청산면 초성리 170-1"
    },
    {
      "name": "전곡역",
      "line": "경원선",
      "lat": 38.024041,
      "lng": 127.071913,
      "address": "경기도 연천군 전곡읍 전곡역로 75(전곡리)"
    },
    {
      "name": "연천역",
      "line": "경원선",
      "lat": 38.100485,
      "lng": 127.07368,
      "address": "경기도 연천군 연천읍 연천로 273-7(차탄리)"
    },
    {
      "name": "청량리역",
      "line": "경의중앙선",
      "lat": 37.580043,
      "lng": 127.047588,
      "address": "서울시 동대문구 왕산로 214"
    },
    {
      "name": "회기역",
      "line": "경의중앙선",
      "lat": 37.589802,
      "lng": 127.057936,
      "address": "서울시 동대문구 회기로196(휘경동 317-101)"
    },
    {
      "name": "광운대역",
      "line": "경의중앙선",
      "lat": 37.623635,
      "lng": 127.061975,
      "address": "서울시 노원구 석계로 98-2(광운대역)"
    },
    {
      "name": "중랑역",
      "line": "경의중앙선",
      "lat": 37.594948,
      "lng": 127.076152,
      "address": "서울특별시 중랑구 중랑역로 9"
    },
    {
      "name": "상봉역",
      "line": "경의중앙선",
      "lat": 37.596754,
      "lng": 127.085553,
      "address": "서울시 중랑구 망우로 297(상봉1동 100-9번지)"
    },
    {
      "name": "망우역",
      "line": "경의중앙선",
      "lat": 37.599288,
      "lng": 127.092318,
      "address": "서울시 중랑구 망우로 55길 11-10"
    },
    {
      "name": "양원역",
      "line": "경의중앙선",
      "lat": 36.963729,
      "lng": 129.091321,
      "address": "서울시 중랑구 송림길 147(망우동)"
    },
    {
      "name": "구리역",
      "line": "경의중앙선",
      "lat": 37.60326,
      "lng": 127.143373,
      "address": "경기도 구리시 건원대로 34번길 32-29(인창동 244-2)"
    },
    {
      "name": "도농역",
      "line": "경의중앙선",
      "lat": 37.608756,
      "lng": 127.161105,
      "address": "경기도 남양주시 경춘로 433(도농동 56-1)"
    },
    {
      "name": "양정역",
      "line": "경의중앙선",
      "lat": 37.604269,
      "lng": 127.194602,
      "address": "경기도 남양주시 경강로 237(이패동 398-32)"
    },
    {
      "name": "덕소역",
      "line": "경의중앙선",
      "lat": 37.586892,
      "lng": 127.208835,
      "address": "경기도 남양주시 와부읍 덕서로 56(덕소리 590-17)"
    },
    {
      "name": "도심역",
      "line": "경의중앙선",
      "lat": 37.579628,
      "lng": 127.222798,
      "address": "경기도 남양주시 와부읍 덕소로 237(도곡리 1024-2)"
    },
    {
      "name": "팔당역",
      "line": "경의중앙선",
      "lat": 37.547321,
      "lng": 127.243896,
      "address": "경기도 남양주시 와부읍 팔당로 107번길"
    },
    {
      "name": "운길산역",
      "line": "경의중앙선",
      "lat": 37.554659,
      "lng": 127.310089,
      "address": "경기도 남양주시 조안면 운길산로 20"
    },
    {
      "name": "양수역",
      "line": "경의중앙선",
      "lat": 37.545998,
      "lng": 127.328948,
      "address": "경기도 양평군 양서면 목왕로 55-10"
    },
    {
      "name": "신원역",
      "line": "경의중앙선",
      "lat": 37.525921,
      "lng": 127.372745,
      "address": "경기도 양평군 양서면 신원역길 7  _x000D_"
    },
    {
      "name": "국수역",
      "line": "경의중앙선",
      "lat": 37.516171,
      "lng": 127.399402,
      "address": "경기도 양평군 양서면 국수역길 45"
    },
    {
      "name": "아신역",
      "line": "경의중앙선",
      "lat": 37.513954,
      "lng": 127.443238,
      "address": "경기도 양평군 옥천면 아신역길 1길 23-3"
    },
    {
      "name": "오빈역",
      "line": "경의중앙선",
      "lat": 37.506061,
      "lng": 127.474053,
      "address": "경기도 양평군 양평읍 덕바위길 58"
    },
    {
      "name": "양평역",
      "line": "경의중앙선",
      "lat": 37.492674,
      "lng": 127.491858,
      "address": "경기도 양평군 양평읍 역전길 30"
    },
    {
      "name": "원덕역",
      "line": "경의중앙선",
      "lat": 37.468585,
      "lng": 127.547468,
      "address": "경기도 양평군 양평읍 원덕흑천길 138"
    },
    {
      "name": "용문역",
      "line": "경의중앙선",
      "lat": 37.482085,
      "lng": 127.594251,
      "address": "경기도 양평군 용문면 다문리 748-2"
    },
    {
      "name": "지평역",
      "line": "경의중앙선",
      "lat": 37.476496,
      "lng": 127.629681,
      "address": "경기도 양평군 지평면 지평역길 32"
    },
    {
      "name": "서울역(경의선)",
      "line": "경의중앙선",
      "lat": 37.556713,
      "lng": 126.97138700000001,
      "address": "서울시 중구 한강대로 405"
    },
    {
      "name": "신촌역",
      "line": "경의중앙선",
      "lat": 37.559768,
      "lng": 126.942308,
      "address": "서울특별시 서대문구 신촌역로 30 신촌민자역사"
    },
    {
      "name": "효창공원앞역",
      "line": "경의중앙선",
      "lat": 37.538789,
      "lng": 126.962339,
      "address": "서울시 용산구 용문동 5-157"
    },
    {
      "name": "공덕역",
      "line": "경의중앙선",
      "lat": 37.542611,
      "lng": 126.952134,
      "address": "서울시 마포구 공덕동 마포대로 92"
    },
    {
      "name": "서강대역",
      "line": "경의중앙선",
      "lat": 37.552132,
      "lng": 126.935389,
      "address": "서울시 마포구 서강로 지하 118"
    },
    {
      "name": "홍대입구역",
      "line": "경의중앙선",
      "lat": 37.55758,
      "lng": 126.926833,
      "address": "서울시 마포구 양화로 지하 188"
    },
    {
      "name": "가좌역",
      "line": "경의중앙선",
      "lat": 37.568611,
      "lng": 126.914841,
      "address": "서울시 서대문구 수색로 27(남가좌동)"
    },
    {
      "name": "디지털미디어시티역",
      "line": "경의중앙선",
      "lat": 37.577964,
      "lng": 126.900421,
      "address": "서울시 은평구 수색로 193(수색동 37-2)"
    },
    {
      "name": "수색역",
      "line": "경의중앙선",
      "lat": 37.580855,
      "lng": 126.895681,
      "address": "서울시 은평구 수색로 261-1"
    },
    {
      "name": "한국항공대",
      "line": "경의중앙선",
      "lat": 37.603102,
      "lng": 126.868291,
      "address": "경기도 고양시 덕양구 화랑로 53(화전동 183-10)"
    },
    {
      "name": "강매역",
      "line": "경의중앙선",
      "lat": 37.612396,
      "lng": 126.844537,
      "address": "경기도 고양시 덕양구 소원로 202"
    },
    {
      "name": "행신역",
      "line": "경의중앙선",
      "lat": 37.612125,
      "lng": 126.834063,
      "address": "경기도 고양시 덕양구 행신동 충경로 124번지(행신2동 812)"
    },
    {
      "name": "능곡역",
      "line": "경의중앙선",
      "lat": 37.618741,
      "lng": 126.820845,
      "address": "경기도 고양시 덕양구 토당로 35(토당동 454-3)"
    },
    {
      "name": "곡산역",
      "line": "경의중앙선",
      "lat": 37.645729,
      "lng": 126.801877,
      "address": "경기도 고양시 일산동구 경의로 160(백석동)"
    },
    {
      "name": "백마역",
      "line": "경의중앙선",
      "lat": 37.658346,
      "lng": 126.794401,
      "address": "경기도 고양시 일산동구 경의로 318(풍동 482-8)"
    },
    {
      "name": "풍산역",
      "line": "경의중앙선",
      "lat": 37.672173,
      "lng": 126.786355,
      "address": "경기도 고양시 일산동구 경의로 486(풍동)"
    },
    {
      "name": "일산역",
      "line": "경의중앙선",
      "lat": 37.682231,
      "lng": 126.769521,
      "address": "경기도 고양시 일산서구 경의로 672"
    },
    {
      "name": "탄현역",
      "line": "경의중앙선",
      "lat": 37.694114,
      "lng": 126.761075,
      "address": "경기도 고양시 일산서구 경의로 856(덕이동)"
    },
    {
      "name": "야당역",
      "line": "경의중앙선",
      "lat": 37.712749,
      "lng": 126.761535,
      "address": "경기도 파주시 소리천로 10"
    },
    {
      "name": "운정역",
      "line": "경의중앙선",
      "lat": 37.725441000000004,
      "lng": 126.767076,
      "address": "경기도 파주시 운정역길 368(야당동 299-4번지)"
    },
    {
      "name": "금릉역",
      "line": "경의중앙선",
      "lat": 37.751295,
      "lng": 126.765401,
      "address": "경기도 파주시 금릉역로85"
    },
    {
      "name": "금촌역",
      "line": "경의중앙선",
      "lat": 37.766106,
      "lng": 126.774515,
      "address": "경기도 파주시 새꽃로 193"
    },
    {
      "name": "월롱역",
      "line": "경의중앙선",
      "lat": 37.796201,
      "lng": 126.792574,
      "address": "경기도 파주시 월롱면 통일로 980"
    },
    {
      "name": "파주역",
      "line": "경의중앙선",
      "lat": 37.815391,
      "lng": 126.792426,
      "address": "경기도 파주시 파주읍 주라위길 38"
    },
    {
      "name": "문산역",
      "line": "경의중앙선",
      "lat": 37.854565,
      "lng": 126.787531,
      "address": "경기도 파주시 문산읍 문산역로 94"
    },
    {
      "name": "임진강역",
      "line": "경의중앙선",
      "lat": 37.888364,
      "lng": 126.746777,
      "address": "경기도 파주시 문산읍 임진각로 115(문산읍)"
    },
    {
      "name": "운천역",
      "line": "경의중앙선",
      "lat": 37.880008,
      "lng": 126.769713,
      "address": "경기도 파주시 문산읍 통일로2033번길3"
    },
    {
      "name": "대곡역",
      "line": "경의중앙선",
      "lat": 37.631629,
      "lng": 126.810225,
      "address": "경기도 고양시 덕양구 대주로 107번길 71-81(대장동 420-1)"
    },
    {
      "name": "개봉역",
      "line": "경인선",
      "lat": 37.494698,
      "lng": 126.858504,
      "address": "서울시 구로구 경인로 40길 47"
    },
    {
      "name": "오류동역",
      "line": "경인선",
      "lat": 37.4944,
      "lng": 126.844551,
      "address": "서울시 구로구 경인로 20길 13"
    },
    {
      "name": "역곡역",
      "line": "경인선",
      "lat": 37.48514,
      "lng": 126.811622,
      "address": "경기도 부천시 원미구 역곡로 1(역곡동)"
    },
    {
      "name": "부천역",
      "line": "경인선",
      "lat": 37.484066,
      "lng": 126.782779,
      "address": "경기도 부천시 소사구 부천로 1"
    },
    {
      "name": "송내역",
      "line": "경인선",
      "lat": 37.487626,
      "lng": 126.753045,
      "address": "경기도 부천시 소사구 송내대로 43"
    },
    {
      "name": "부평역",
      "line": "경인선",
      "lat": 37.489457,
      "lng": 126.724584,
      "address": "인천시 부평구 광장로 16"
    },
    {
      "name": "백운역",
      "line": "경인선",
      "lat": 37.483301,
      "lng": 126.707179,
      "address": "인천시 부평구 마장로 55번길 14"
    },
    {
      "name": "동암역",
      "line": "경인선",
      "lat": 37.470835,
      "lng": 126.703016,
      "address": "인천시 부평구 동암광장로 10"
    },
    {
      "name": "주안역",
      "line": "경인선",
      "lat": 37.465041,
      "lng": 126.680702,
      "address": "인천시 남구 주안로 95-19"
    },
    {
      "name": "제물포역",
      "line": "경인선",
      "lat": 37.466809,
      "lng": 126.657165,
      "address": "인천시 남구 경인로 129"
    },
    {
      "name": "동인천역",
      "line": "경인선",
      "lat": 37.475414,
      "lng": 126.632598,
      "address": "인천시 중구 참외전로 119"
    },
    {
      "name": "인천역",
      "line": "경인선",
      "lat": 37.476364,
      "lng": 126.616936,
      "address": "인천시 중구 제물량로 269"
    },
    {
      "name": "구일역",
      "line": "경인선",
      "lat": 37.495973,
      "lng": 126.869201,
      "address": "서울시 구로구 구일로 133"
    },
    {
      "name": "부개역",
      "line": "경인선",
      "lat": 37.488479,
      "lng": 126.740549,
      "address": "인천시 부평구 수변로 22"
    },
    {
      "name": "간석역",
      "line": "경인선",
      "lat": 37.464689,
      "lng": 126.693408,
      "address": "인천시 남동구 석정로 522-14"
    },
    {
      "name": "도원역",
      "line": "경인선",
      "lat": 37.468604,
      "lng": 126.642824,
      "address": "인천시 동구 참외전로 245"
    },
    {
      "name": "온수역",
      "line": "경인선",
      "lat": 37.492267,
      "lng": 126.823399,
      "address": "서울시 구로구 부일로 872"
    },
    {
      "name": "중동역",
      "line": "경인선",
      "lat": 37.486664,
      "lng": 126.764474,
      "address": "경기도 부천시 소사구 중동로 73"
    },
    {
      "name": "도화역",
      "line": "경인선",
      "lat": 37.466154,
      "lng": 126.66846,
      "address": "인천시 남구 숙골로 24번길 9"
    },
    {
      "name": "소사역",
      "line": "경인선",
      "lat": 37.482755,
      "lng": 126.795654,
      "address": "경기도 부천시 소사구 경인로 363"
    },
    {
      "name": "망우역",
      "line": "경춘선",
      "lat": 37.599988,
      "lng": 127.092031,
      "address": "서울시 중랑구 망우로 55길 11-10"
    },
    {
      "name": "신내역",
      "line": "경춘선",
      "lat": 37.612855,
      "lng": 127.103277,
      "address": "서울시 중랑구 망우동 320-2"
    },
    {
      "name": "갈매역",
      "line": "경춘선",
      "lat": 37.634135,
      "lng": 127.114803,
      "address": "경기도 구리시 갈매동 경춘북로 229(갈매동 502-18)"
    },
    {
      "name": "별내역",
      "line": "경춘선",
      "lat": 37.642221,
      "lng": 127.127208,
      "address": "경기도 남양주시 경춘북로 375(별내동 182-5)"
    },
    {
      "name": "퇴계원역",
      "line": "경춘선",
      "lat": 37.648316,
      "lng": 127.143858,
      "address": "경기도 남양주시 퇴계원면 경춘북로 545(퇴계원리 218-8)"
    },
    {
      "name": "사릉역",
      "line": "경춘선",
      "lat": 37.651145,
      "lng": 127.176839,
      "address": "경기도 남양주시 진건읍 진건우회로 72-8(사능리 590-2)"
    },
    {
      "name": "금곡역",
      "line": "경춘선",
      "lat": 37.637414,
      "lng": 127.207931,
      "address": "경기도 남양주시 경춘로 903(금곡동 404-276)"
    },
    {
      "name": "평내호평역",
      "line": "경춘선",
      "lat": 37.653229,
      "lng": 127.244452,
      "address": "경기도 남양주시 경춘로 1375(평내동 156)"
    },
    {
      "name": "천마산역",
      "line": "경춘선",
      "lat": 37.658995,
      "lng": 127.285731,
      "address": "경기도 남양주시 화도읍 묵현로 25번길 37"
    },
    {
      "name": "마석역",
      "line": "경춘선",
      "lat": 37.652328,
      "lng": 127.311713,
      "address": "경기도 남양주시 화도읍 마석우리 241-4"
    },
    {
      "name": "대성리역",
      "line": "경춘선",
      "lat": 37.683909,
      "lng": 127.379165,
      "address": "경기도 가평군 청평면 경춘로 88(대성리 393)"
    },
    {
      "name": "청평역",
      "line": "경춘선",
      "lat": 37.735484,
      "lng": 127.426541,
      "address": "경기도 가평군 청평면 청평역로 97-33(청평리 125-1)"
    },
    {
      "name": "상천역",
      "line": "경춘선",
      "lat": 37.770305,
      "lng": 127.4542,
      "address": "경기도 가평군 청평면 상천역로 29(상천리 1261)"
    },
    {
      "name": "가평역",
      "line": "경춘선",
      "lat": 37.814515,
      "lng": 127.510693,
      "address": "경기도 가평군 가평읍 문화로 13-42(달전리 567)"
    },
    {
      "name": "굴봉산역",
      "line": "경춘선",
      "lat": 37.832086,
      "lng": 127.557732,
      "address": "강원도 춘천시 남산면 서백길 192(백양리 588-30)"
    },
    {
      "name": "백양리역",
      "line": "경춘선",
      "lat": 37.830881,
      "lng": 127.589085,
      "address": "강원도 춘천시 남산면 북한강변길 690(강촌리 680-7)"
    },
    {
      "name": "강촌역",
      "line": "경춘선",
      "lat": 37.805728,
      "lng": 127.634054,
      "address": "강원도 춘춘시 남산면 강촌로 150(방곡리 409)"
    },
    {
      "name": "김유정역",
      "line": "경춘선",
      "lat": 37.818475,
      "lng": 127.714302,
      "address": "강원도 춘천시 신동면 김유정로 1435(신동면 증리 859-3)"
    },
    {
      "name": "남춘천역",
      "line": "경춘선",
      "lat": 37.864071,
      "lng": 127.723761,
      "address": "강원도 춘천시 영서로 2260(퇴계동 633-2)"
    },
    {
      "name": "춘천역",
      "line": "경춘선",
      "lat": 37.884391,
      "lng": 127.716603,
      "address": "강원도 춘천시 평화로 1(근화동 190)"
    },
    {
      "name": "녹동",
      "line": "광주도시철도 1호선",
      "lat": 35.107028,
      "lng": 126.933932,
      "address": "광주광역시 동구 녹동길 45(용산동)"
    },
    {
      "name": "소태",
      "line": "광주도시철도 1호선",
      "lat": 35.124108,
      "lng": 126.932013,
      "address": "광주광역시 동구 남문로 지하 587(소태동)"
    },
    {
      "name": "학동증심사입구",
      "line": "광주도시철도 1호선",
      "lat": 35.133023,
      "lng": 126.928382,
      "address": "광주광역시 동구 남문로 지하 700(학동)"
    },
    {
      "name": "남광주",
      "line": "광주도시철도 1호선",
      "lat": 35.1389849,
      "lng": 126.92318,
      "address": "광주광역시 동구 제봉로 지하 14(학동)"
    },
    {
      "name": "문화전당(구도청)",
      "line": "광주도시철도 1호선",
      "lat": 35.14661,
      "lng": 126.92005,
      "address": "광주광역시 동구 문화전당로 26번길 지하 7(광산동)"
    },
    {
      "name": "금남로4가",
      "line": "광주도시철도 1호선",
      "lat": 35.150976,
      "lng": 126.914446,
      "address": "광주광역시 동구 금남로 지하 210(금남로4가)"
    },
    {
      "name": "금남로5가",
      "line": "광주도시철도 1호선",
      "lat": 35.153658,
      "lng": 126.910033,
      "address": "광주광역시 북구 금남로 지하 138(북동)"
    },
    {
      "name": "양동시장",
      "line": "광주도시철도 1호선",
      "lat": 35.154176,
      "lng": 126.901089,
      "address": "광주광역시 서구 경열로 지하 152(양동)"
    },
    {
      "name": "돌고개",
      "line": "광주도시철도 1호선",
      "lat": 35.152047,
      "lng": 126.895637,
      "address": "광주광역시 서구 경열로 지하 87(농성동)"
    },
    {
      "name": "농성",
      "line": "광주도시철도 1호선",
      "lat": 35.153363,
      "lng": 126.883973,
      "address": "광주광역시 서구 상무대로 지하 1123(농성동)"
    },
    {
      "name": "화정",
      "line": "광주도시철도 1호선",
      "lat": 35.152085,
      "lng": 126.876698,
      "address": "광주광역시 서구 상무대로 지하 1041(화정동)"
    },
    {
      "name": "쌍촌",
      "line": "광주도시철도 1호선",
      "lat": 35.151793,
      "lng": 126.869519,
      "address": "광주광역시 서구 상무대로 지하 983(쌍촌동)"
    },
    {
      "name": "운천",
      "line": "광주도시철도 1호선",
      "lat": 35.150486,
      "lng": 126.858694,
      "address": "광주광역시 서구 상무대로 지하 883(쌍촌동)"
    },
    {
      "name": "상무",
      "line": "광주도시철도 1호선",
      "lat": 35.146784,
      "lng": 126.848641,
      "address": "광주광역시 서구 상무대로 지하 777(마륵동)"
    },
    {
      "name": "김대중컨벤션센터(마륵)",
      "line": "광주도시철도 1호선",
      "lat": 35.143214,
      "lng": 126.841442,
      "address": "광주광역시 서구 상무대로 지하 705(마륵동)"
    },
    {
      "name": "공항",
      "line": "광주도시철도 1호선",
      "lat": 35.144179,
      "lng": 126.81153,
      "address": "광주광역시 광산구 상무대로 지하 416-99(신촌동)"
    },
    {
      "name": "송정공원",
      "line": "광주도시철도 1호선",
      "lat": 35.143565,
      "lng": 126.799245,
      "address": "광주광역시 광산구 상무대로 지하 314-99(송정동)"
    },
    {
      "name": "광주송정역",
      "line": "광주도시철도 1호선",
      "lat": 35.137529,
      "lng": 126.791488,
      "address": "광주광역시 광산구 상무대로 지하 201-99(송정동)"
    },
    {
      "name": "도산",
      "line": "광주도시철도 1호선",
      "lat": 35.131713,
      "lng": 126.787942,
      "address": "광주광역시 광산구 상무대로 지하 125-99(도산동)"
    },
    {
      "name": "평동",
      "line": "광주도시철도 1호선",
      "lat": 35.1247,
      "lng": 126.769586,
      "address": "광주광역시 광산구 평동로 870(월전동)"
    },
    {
      "name": "양촌역",
      "line": "김포도시철도",
      "lat": 37.641639,
      "lng": 126.614694,
      "address": "경기도 김포시 양촌읍 양촌역길 107"
    },
    {
      "name": "구래역",
      "line": "김포도시철도",
      "lat": 37.645354,
      "lng": 126.6285,
      "address": "경기도 김포시 김포한강7로 87"
    },
    {
      "name": "마산역",
      "line": "김포도시철도",
      "lat": 37.640606,
      "lng": 126.643944,
      "address": "경기도 김포시 김포한강3로 지하 442"
    },
    {
      "name": "장기역",
      "line": "김포도시철도",
      "lat": 37.644028,
      "lng": 126.669,
      "address": "경기도 김포시 김포한강1로 지하 59"
    },
    {
      "name": "운양역",
      "line": "김포도시철도",
      "lat": 37.653861,
      "lng": 126.683833,
      "address": "경기도 김포시 김포한강1로 지하 235"
    },
    {
      "name": "걸포북변역",
      "line": "김포도시철도",
      "lat": 37.631639,
      "lng": 126.70575,
      "address": "경기도 김포시 김포대로 지하 1040"
    },
    {
      "name": "사우역",
      "line": "김포도시철도",
      "lat": 37.620361,
      "lng": 126.719722,
      "address": "경기도 김포시 김포대로 지하 852"
    },
    {
      "name": "풍무역",
      "line": "김포도시철도",
      "lat": 37.612333,
      "lng": 126.732583,
      "address": "경기도 김포시 김포대로 지하 710"
    },
    {
      "name": "고촌역",
      "line": "김포도시철도",
      "lat": 37.60125,
      "lng": 126.770361,
      "address": "경기도 김포시 고촌읍 김포대로 지하 350"
    },
    {
      "name": "김포공항역",
      "line": "김포도시철도",
      "lat": 37.562309,
      "lng": 126.801833,
      "address": "서울특별시 강서구 하늘길 지하 77"
    },
    {
      "name": "구미역",
      "line": "대경선",
      "lat": 36.1282,
      "lng": 128.331,
      "address": "경북 구미시 구미중앙로 76"
    },
    {
      "name": "사곡역",
      "line": "대경선",
      "lat": 36.098508,
      "lng": 128.356416,
      "address": "경북 구미시 상사서로 173-16"
    },
    {
      "name": "왜관역",
      "line": "대경선",
      "lat": 35.991821,
      "lng": 128.400391,
      "address": "경북 칠곡군 왜관읍 중앙로8길 10"
    },
    {
      "name": "서대구역",
      "line": "대경선",
      "lat": 35.881734,
      "lng": 128.540121,
      "address": "대구 서구 와룡로 527"
    },
    {
      "name": "대구역",
      "line": "대경선",
      "lat": 35.876,
      "lng": 128.5961,
      "address": "대구 북구 태평로 161"
    },
    {
      "name": "동대구역",
      "line": "대경선",
      "lat": 35.8791,
      "lng": 128.628652,
      "address": "대구 동구 동대구로 550"
    },
    {
      "name": "경산역",
      "line": "대경선",
      "lat": 35.8192,
      "lng": 128.7276,
      "address": "경북 경산시 중앙로1"
    },
    {
      "name": "설화명곡",
      "line": "대구 도시철도 1호선",
      "lat": 35.7986179,
      "lng": 128.4893927,
      "address": "달성군 화원읍 비슬로 2476"
    },
    {
      "name": "화원",
      "line": "대구 도시철도 1호선",
      "lat": 35.804349,
      "lng": 128.500409,
      "address": "달성군 화원읍 비슬로 지하2600"
    },
    {
      "name": "대곡(정부대구청사)",
      "line": "대구 도시철도 1호선",
      "lat": 35.809571,
      "lng": 128.51257,
      "address": "달서구 비슬로 지하2718 (대곡동)"
    },
    {
      "name": "진천",
      "line": "대구 도시철도 1호선",
      "lat": 35.813815,
      "lng": 128.522374,
      "address": "달서구 월배로 지하76 (진천동)"
    },
    {
      "name": "월배",
      "line": "대구 도시철도 1호선",
      "lat": 35.816123,
      "lng": 128.530119,
      "address": "달서구 월배로 지하143 (진천동)"
    },
    {
      "name": "상인",
      "line": "대구 도시철도 1호선",
      "lat": 35.8188583,
      "lng": 128.5375588,
      "address": "달서구 월배로 지하223 (상인동)"
    },
    {
      "name": "월촌",
      "line": "대구 도시철도 1호선",
      "lat": 35.823695,
      "lng": 128.545465,
      "address": "달서구 월배로 지하311 (송현동)"
    },
    {
      "name": "송현",
      "line": "대구 도시철도 1호선",
      "lat": 35.831092,
      "lng": 128.551755,
      "address": "달서구 월배로 지하412 (송현동)"
    },
    {
      "name": "서부정류장(관문시장)",
      "line": "대구 도시철도 1호선",
      "lat": 35.8373375,
      "lng": 128.5570702,
      "address": "남구 월배로 지하501 (대명동)"
    },
    {
      "name": "대명",
      "line": "대구 도시철도 1호선",
      "lat": 35.8392924,
      "lng": 128.5652846,
      "address": "남구 대명로 지하71 (대명동)"
    },
    {
      "name": "안지랑",
      "line": "대구 도시철도 1호선",
      "lat": 35.8392,
      "lng": 128.574,
      "address": "남구 대명로 지하141 (대명동)"
    },
    {
      "name": "현충로",
      "line": "대구 도시철도 1호선",
      "lat": 35.84072,
      "lng": 128.58085,
      "address": "남구 대명로 지하222 (대명동)"
    },
    {
      "name": "영대병원",
      "line": "대구 도시철도 1호선",
      "lat": 35.8442516,
      "lng": 128.5882407,
      "address": "남구 대명로 지하292 (대명동)"
    },
    {
      "name": "교대",
      "line": "대구 도시철도 1호선",
      "lat": 35.8510953,
      "lng": 128.590643,
      "address": "남구 중앙대로 지하194 (대명동)"
    },
    {
      "name": "명덕(2.28민주운동기념회관)",
      "line": "대구 도시철도 1호선",
      "lat": 35.857382,
      "lng": 128.59088,
      "address": "중구 명덕로 지하185 (남산동)"
    },
    {
      "name": "반월당",
      "line": "대구 도시철도 1호선",
      "lat": 35.86389,
      "lng": 128.593312,
      "address": "중구 달구벌대로 지하2100 (덕산동)"
    },
    {
      "name": "중앙로",
      "line": "대구 도시철도 1호선",
      "lat": 35.870873,
      "lng": 128.593888,
      "address": "중구 중앙대로 지하424 (남일동)"
    },
    {
      "name": "대구역",
      "line": "대구 도시철도 1호선",
      "lat": 35.876379,
      "lng": 128.596919,
      "address": "북구 칠성남로30길 지하24 (칠성동)"
    },
    {
      "name": "칠성시장",
      "line": "대구 도시철도 1호선",
      "lat": 35.876159,
      "lng": 128.604885,
      "address": "북구 칠성남로 지하222 (칠성동)"
    },
    {
      "name": "신천(경북대입구)",
      "line": "대구 도시철도 1호선",
      "lat": 35.874527,
      "lng": 128.617244,
      "address": "동구 동부로 지하41 (신천동)"
    },
    {
      "name": "동대구역",
      "line": "대구 도시철도 1호선",
      "lat": 35.877626,
      "lng": 128.627152,
      "address": "동구 동대구로 지하530 (신천동)"
    },
    {
      "name": "동구청(큰고개)",
      "line": "대구 도시철도 1호선",
      "lat": 35.884485,
      "lng": 128.632295,
      "address": "동구 신암남로 지하169 (신암동)"
    },
    {
      "name": "아양교(대구국제공항입구)",
      "line": "대구 도시철도 1호선",
      "lat": 35.887208,
      "lng": 128.639572,
      "address": "동구 아양로 지하245 (신암동)"
    },
    {
      "name": "동촌(동촌유원지)",
      "line": "대구 도시철도 1호선",
      "lat": 35.886039,
      "lng": 128.650455,
      "address": "동구 해동로 지하197 (검사동)"
    },
    {
      "name": "해안",
      "line": "대구 도시철도 1호선",
      "lat": 35.883765,
      "lng": 128.659079,
      "address": "동구 동촌로 지하167 (방촌동)"
    },
    {
      "name": "방촌",
      "line": "대구 도시철도 1호선",
      "lat": 35.879929,
      "lng": 128.669767,
      "address": "동구 동촌로 지하275 (방촌동)"
    },
    {
      "name": "용계",
      "line": "대구 도시철도 1호선",
      "lat": 35.876256,
      "lng": 128.681414,
      "address": "동구 동촌로 지하383 (용계동)"
    },
    {
      "name": "율하",
      "line": "대구 도시철도 1호선",
      "lat": 35.869751,
      "lng": 128.692775,
      "address": "동구 안심로 지하57 (율하동)"
    },
    {
      "name": "신기",
      "line": "대구 도시철도 1호선",
      "lat": 35.866761,
      "lng": 128.701724,
      "address": "동구 안심로 지하159 (신기동)"
    },
    {
      "name": "반야월",
      "line": "대구 도시철도 1호선",
      "lat": 35.865948,
      "lng": 128.713663,
      "address": "동구 안심로 지하261 (동호동)"
    },
    {
      "name": "각산",
      "line": "대구 도시철도 1호선",
      "lat": 35.867852,
      "lng": 128.723843,
      "address": "동구 안심로 지하363 (신서동)"
    },
    {
      "name": "안심(혁신도시·첨복단지)",
      "line": "대구 도시철도 1호선",
      "lat": 35.8712,
      "lng": 128.7338,
      "address": "동구 안심로 지하455 (괴전동)"
    },
    {
      "name": "대구한의대병원",
      "line": "대구 도시철도 1호선",
      "lat": 35.8717089,
      "lng": 128.7508237,
      "address": "동구 안심로 610 (사복동)"
    },
    {
      "name": "부호(경일대·호산대)",
      "line": "대구 도시철도 1호선",
      "lat": 35.9002809,
      "lng": 128.8031144,
      "address": "경산시 하양읍 대경로 528"
    },
    {
      "name": "하양(대구가톨릭대)",
      "line": "대구 도시철도 1호선",
      "lat": 35.9094258,
      "lng": 128.8175403,
      "address": "경산시 하양읍 하양역길 3"
    },
    {
      "name": "문양",
      "line": "대구 도시철도 2호선",
      "lat": 35.86414313,
      "lng": 128.4370043,
      "address": "달성군 다사읍 문양역길 71"
    },
    {
      "name": "다사",
      "line": "대구 도시철도 2호선",
      "lat": 35.86495301,
      "lng": 128.4582876,
      "address": "달성군 다사읍 다사역로 지하30"
    },
    {
      "name": "대실",
      "line": "대구 도시철도 2호선",
      "lat": 35.8573333,
      "lng": 128.4656264,
      "address": "달성군 다사읍 달구벌대로 지하888"
    },
    {
      "name": "강창",
      "line": "대구 도시철도 2호선",
      "lat": 35.8531116,
      "lng": 128.4789997,
      "address": "달서구 달구벌대로 지하1014 (호산동)"
    },
    {
      "name": "계명대",
      "line": "대구 도시철도 2호선",
      "lat": 35.85146491,
      "lng": 128.491969,
      "address": "달서구 달구벌대로 지하1140 (신당동)"
    },
    {
      "name": "성서산업단지",
      "line": "대구 도시철도 2호선",
      "lat": 35.8518236,
      "lng": 128.5071662,
      "address": "달서구 달구벌대로 지하1280 (이곡동)"
    },
    {
      "name": "이곡",
      "line": "대구 도시철도 2호선",
      "lat": 35.85062003,
      "lng": 128.5157686,
      "address": "달서구 달구벌대로 지하1357 (이곡동)"
    },
    {
      "name": "용산(서부법원․검찰청입구)",
      "line": "대구 도시철도 2호선",
      "lat": 35.84912,
      "lng": 128.5287686,
      "address": "달서구 달구벌대로 지하1476 (용산동)"
    },
    {
      "name": "죽전",
      "line": "대구 도시철도 2호선",
      "lat": 35.8503505,
      "lng": 128.537089,
      "address": "달서구 달구벌대로 지하1560 (죽전동)"
    },
    {
      "name": "감삼",
      "line": "대구 도시철도 2호선",
      "lat": 35.8543251,
      "lng": 128.547905,
      "address": "달서구 달구벌대로 지하1665 (감삼동)"
    },
    {
      "name": "두류",
      "line": "대구 도시철도 2호선",
      "lat": 35.8572405,
      "lng": 128.555509,
      "address": "달서구 달구벌대로 지하1760 (두류동)"
    },
    {
      "name": "내당",
      "line": "대구 도시철도 2호선",
      "lat": 35.860194,
      "lng": 128.564593,
      "address": "달서구 달구벌대로 지하1900 (두류동)"
    },
    {
      "name": "반고개",
      "line": "대구 도시철도 2호선",
      "lat": 35.8623,
      "lng": 128.572817,
      "address": "서구 달구벌대로 지하1827 (내당동)"
    },
    {
      "name": "청라언덕",
      "line": "대구 도시철도 2호선",
      "lat": 35.865,
      "lng": 128.58232271,
      "address": "중구 달구벌대로 지하2000 (동산동)"
    },
    {
      "name": "반월당",
      "line": "대구 도시철도 2호선",
      "lat": 35.865592,
      "lng": 128.593334,
      "address": "중구 달구벌대로 지하2100 (덕산동)"
    },
    {
      "name": "경대병원",
      "line": "대구 도시철도 2호선",
      "lat": 35.863102,
      "lng": 128.60316,
      "address": "중구 달구벌대로 지하2190 (삼덕동)"
    },
    {
      "name": "대구은행(대구교육청)",
      "line": "대구 도시철도 2호선",
      "lat": 35.859868,
      "lng": 128.613975,
      "address": "수성구 달구벌대로 지하2300 (수성동)"
    },
    {
      "name": "범어",
      "line": "대구 도시철도 2호선",
      "lat": 35.8591,
      "lng": 128.6257,
      "address": "수성구 달구벌대로 지하2396 (범어동)"
    },
    {
      "name": "수성구청(KBS)",
      "line": "대구 도시철도 2호선",
      "lat": 35.85874022,
      "lng": 128.6359517,
      "address": "수성구 달구벌대로 지하2500 (범어동)"
    },
    {
      "name": "만촌",
      "line": "대구 도시철도 2호선",
      "lat": 35.858841,
      "lng": 128.644951,
      "address": "수성구 달구벌대로 지하2584 (만촌동)"
    },
    {
      "name": "담티(수성대·대륜)",
      "line": "대구 도시철도 2호선",
      "lat": 35.854841,
      "lng": 128.654151,
      "address": "수성구 달구벌대로 지하2672 (만촌동)"
    },
    {
      "name": "연호",
      "line": "대구 도시철도 2호선",
      "lat": 35.8465,
      "lng": 128.67185,
      "address": "수성구 달구벌대로 지하2870 (연호동)"
    },
    {
      "name": "수성알파시티(삼성라이온즈파크)",
      "line": "대구 도시철도 2호선",
      "lat": 35.842718,
      "lng": 128.67999,
      "address": "수성구 달구벌대로 지하2950 (연호동)"
    },
    {
      "name": "고산",
      "line": "대구 도시철도 2호선",
      "lat": 35.842955,
      "lng": 128.69335,
      "address": "수성구 달구벌대로 지하3080 (시지동)"
    },
    {
      "name": "신매",
      "line": "대구 도시철도 2호선",
      "lat": 35.8408,
      "lng": 128.705,
      "address": "수성구 달구벌대로 지하3180 (매호동)"
    },
    {
      "name": "사월",
      "line": "대구 도시철도 2호선",
      "lat": 35.837066,
      "lng": 128.715173,
      "address": "수성구달구벌대로 지하3290 (신매동)"
    },
    {
      "name": "정평",
      "line": "대구 도시철도 2호선",
      "lat": 35.83407,
      "lng": 128.728695,
      "address": "경상북도 경산시 대학로 지하60(정평동, 정평역)"
    },
    {
      "name": "임당",
      "line": "대구 도시철도 2호선",
      "lat": 35.834131,
      "lng": 128.741076,
      "address": "경상북도 경산시 대학로 지하170(중방동, 임당역)"
    },
    {
      "name": "영남대",
      "line": "대구 도시철도 2호선",
      "lat": 35.836373,
      "lng": 128.752966,
      "address": "경상북도 경산시 대학로 지하270 (대동, 영남대역)"
    },
    {
      "name": "칠곡경대병원",
      "line": "대구 도시철도 3호선",
      "lat": 35.95838748,
      "lng": 128.5598908,
      "address": "북구 팔거천동로 386(동호동)"
    },
    {
      "name": "학정",
      "line": "대구 도시철도 3호선",
      "lat": 35.95155512,
      "lng": 128.5591934,
      "address": "북구 팔거천동로 310(학정동)"
    },
    {
      "name": "팔거(국립농관원통계청)",
      "line": "대구 도시철도 3호선",
      "lat": 35.94404716,
      "lng": 128.5583366,
      "address": "북구 팔거천동로 226(동천동)"
    },
    {
      "name": "동천",
      "line": "대구 도시철도 3호선",
      "lat": 35.93770658,
      "lng": 128.556683,
      "address": "북구 팔거천동로 147(동천동)"
    },
    {
      "name": "칠곡운암",
      "line": "대구 도시철도 3호선",
      "lat": 35.93145534,
      "lng": 128.5545305,
      "address": "북구 팔거천동로 79(구암동)"
    },
    {
      "name": "구암(과학대보건대입구)",
      "line": "대구 도시철도 3호선",
      "lat": 35.92574223,
      "lng": 128.5503415,
      "address": "북구 팔거천동로 1(구암동)"
    },
    {
      "name": "태전",
      "line": "대구 도시철도 3호선",
      "lat": 35.9196172,
      "lng": 128.547388,
      "address": "북구 칠곡중앙대로 262(태전동)"
    },
    {
      "name": "매천",
      "line": "대구 도시철도 3호선",
      "lat": 35.91265,
      "lng": 128.5434,
      "address": "북구 학정로 6(매천동)"
    },
    {
      "name": "매천시장",
      "line": "대구 도시철도 3호선",
      "lat": 35.90443,
      "lng": 128.545755,
      "address": "북구 매천로 18길 39(매천동)"
    },
    {
      "name": "팔달",
      "line": "대구 도시철도 3호선",
      "lat": 35.89777,
      "lng": 128.5468,
      "address": "북구 매천로2길 43(팔달동)"
    },
    {
      "name": "공단",
      "line": "대구 도시철도 3호선",
      "lat": 35.892,
      "lng": 128.5536,
      "address": "북구 팔달로 28(비산동)"
    },
    {
      "name": "만평",
      "line": "대구 도시철도 3호선",
      "lat": 35.889893,
      "lng": 128.561002,
      "address": "북구 팔달로 105(노원동3가)"
    },
    {
      "name": "팔달시장",
      "line": "대구 도시철도 3호선",
      "lat": 35.88883085,
      "lng": 128.5678716,
      "address": "북구 팔달로 163-1(노원동3가)"
    },
    {
      "name": "원대",
      "line": "대구 도시철도 3호선",
      "lat": 35.887886,
      "lng": 128.574392,
      "address": "서구 팔달로 224-2(원대동3가)"
    },
    {
      "name": "북구청(DGB대구은행파크)",
      "line": "대구 도시철도 3호선",
      "lat": 35.88381395,
      "lng": 128.5814483,
      "address": "서구 원대로 71(원대동2가)"
    },
    {
      "name": "달성공원",
      "line": "대구 도시철도 3호선",
      "lat": 35.87573001,
      "lng": 128.5821218,
      "address": "중구 달성로 116(수창동)"
    },
    {
      "name": "서문시장(동산병원)",
      "line": "대구 도시철도 3호선",
      "lat": 35.86966429,
      "lng": 128.582241,
      "address": "중구 달성로 50(대신동)"
    },
    {
      "name": "청라언덕(신남)",
      "line": "대구 도시철도 3호선",
      "lat": 35.86419437,
      "lng": 128.5823758,
      "address": "중구 남산로 80(남산동)"
    },
    {
      "name": "남산(계명네거리)",
      "line": "대구 도시철도 3호선",
      "lat": 35.85668979,
      "lng": 128.5834576,
      "address": "중구 남산로 2(남산동)"
    },
    {
      "name": "명덕(2·28민주운동기념회관)",
      "line": "대구 도시철도 3호선",
      "lat": 35.85694518,
      "lng": 128.5900469,
      "address": "남구 명덕로 186(대명동)"
    },
    {
      "name": "건들바위",
      "line": "대구 도시철도 3호선",
      "lat": 35.85538252,
      "lng": 128.5996903,
      "address": "남구 명덕로 260(이천동)"
    },
    {
      "name": "대봉교",
      "line": "대구 도시철도 3호선",
      "lat": 35.85499783,
      "lng": 128.6063685,
      "address": "남구 명덕로 330(이천동)"
    },
    {
      "name": "수성시장",
      "line": "대구 도시철도 3호선",
      "lat": 35.85431676,
      "lng": 128.6160292,
      "address": "수성구 명덕로 420(수성동2가)"
    },
    {
      "name": "수성구민운동장",
      "line": "대구 도시철도 3호선",
      "lat": 35.85240979,
      "lng": 128.6251246,
      "address": "수성구 동대구로 248(범어동)"
    },
    {
      "name": "어린이세상",
      "line": "대구 도시철도 3호선",
      "lat": 35.84516989,
      "lng": 128.6244677,
      "address": "수성구 동대구로 166(황금동)"
    },
    {
      "name": "황금",
      "line": "대구 도시철도 3호선",
      "lat": 35.83907838,
      "lng": 128.6239185,
      "address": "수성구 동대구로 100(두산동)"
    },
    {
      "name": "수성못(TBC)",
      "line": "대구 도시철도 3호선",
      "lat": 35.83135605,
      "lng": 128.6232167,
      "address": "수성구 동대구로 14(지산동)"
    },
    {
      "name": "지산",
      "line": "대구 도시철도 3호선",
      "lat": 35.82515322,
      "lng": 128.6319513,
      "address": "수성구 지범로 100(지산동)"
    },
    {
      "name": "범물",
      "line": "대구 도시철도 3호선",
      "lat": 35.82083917,
      "lng": 128.6401127,
      "address": "수성구 지범로 194(범물동)"
    },
    {
      "name": "용지",
      "line": "대구 도시철도 3호선",
      "lat": 35.8182678,
      "lng": 128.6465345,
      "address": "수성구 범안로 83(범물동)"
    },
    {
      "name": "판암",
      "line": "대전 도시철도 1호선",
      "lat": 36.316896,
      "lng": 127.458264,
      "address": "대전광역시 동구 옥천로 지하162 (판암동)"
    },
    {
      "name": "신흥",
      "line": "대전 도시철도 1호선",
      "lat": 36.319652,
      "lng": 127.448792,
      "address": "대전광역시 동구 옥천로 지하 70 (판암동)"
    },
    {
      "name": "대동",
      "line": "대전 도시철도 1호선",
      "lat": 36.329532,
      "lng": 127.442848,
      "address": "대전광역시 동구 계족로 지하 176 (대동)"
    },
    {
      "name": "대전",
      "line": "대전 도시철도 1호선",
      "lat": 36.331583,
      "lng": 127.433118,
      "address": "대전광역시 동구 중앙로 지하 218 (중동)"
    },
    {
      "name": "중앙로",
      "line": "대전 도시철도 1호선",
      "lat": 36.328664,
      "lng": 127.425842,
      "address": "대전광역시 중구 중앙로 지하 145 (은행동)"
    },
    {
      "name": "중구청",
      "line": "대전 도시철도 1호선",
      "lat": 36.324831,
      "lng": 127.419627,
      "address": "대전광역시 중구 중앙로 지하 71 (선화동)"
    },
    {
      "name": "서대전네거리",
      "line": "대전 도시철도 1호선",
      "lat": 36.322416,
      "lng": 127.412518,
      "address": "대전광역시 중구 계룡로 지하 889(용두동)"
    },
    {
      "name": "오룡",
      "line": "대전 도시철도 1호선",
      "lat": 36.328582,
      "lng": 127.405046,
      "address": "대전광역시 중구 계룡로 지하 793(오류동)"
    },
    {
      "name": "용문",
      "line": "대전 도시철도 1호선",
      "lat": 36.338252,
      "lng": 127.393317,
      "address": "대전광역시 서구 계룡로 지하 644(용문동)"
    },
    {
      "name": "탄방",
      "line": "대전 도시철도 1호선",
      "lat": 36.34544,
      "lng": 127.384603,
      "address": "대전광역시 서구 문정로48번길 지하 19(탄방동)"
    },
    {
      "name": "시청",
      "line": "대전 도시철도 1호선",
      "lat": 36.351673,
      "lng": 127.386739,
      "address": "대전광역시 서구 둔산중로 지하 55(둔산동)"
    },
    {
      "name": "정부청사",
      "line": "대전 도시철도 1호선",
      "lat": 36.357661,
      "lng": 127.381047,
      "address": "대전광역시 서구 한밭대로 지하 744(둔산동)"
    },
    {
      "name": "갈마",
      "line": "대전 도시철도 1호선",
      "lat": 36.357522,
      "lng": 127.372632,
      "address": "대전광역시 서구 한밭대로 지하 666(갈마동)"
    },
    {
      "name": "월평",
      "line": "대전 도시철도 1호선",
      "lat": 36.358272,
      "lng": 127.364382,
      "address": "대전광역시 서구 한밭대로 지하 595(월평동)"
    },
    {
      "name": "갑천",
      "line": "대전 도시철도 1호선",
      "lat": 36.354578,
      "lng": 127.354467,
      "address": "대전광역시 서구 갑천도시고속도로 지하 1833(월평동)"
    },
    {
      "name": "유성온천",
      "line": "대전 도시철도 1호선",
      "lat": 36.353689,
      "lng": 127.341524,
      "address": "대전광역시 유성구 계룡로 지하 97(봉명동)"
    },
    {
      "name": "구암",
      "line": "대전 도시철도 1호선",
      "lat": 36.356605,
      "lng": 127.33083,
      "address": "대전광역시 유성구 유성대로 703(구암동)"
    },
    {
      "name": "현충원",
      "line": "대전 도시철도 1호선",
      "lat": 36.359021,
      "lng": 127.321525,
      "address": "대전광역시 유성구 현충원로 지하 455(구암동)"
    },
    {
      "name": "월드컵경기장",
      "line": "대전 도시철도 1호선",
      "lat": 36.366825,
      "lng": 127.317859,
      "address": "대전광역시 유성구 한밭대로 지하 155(노은동)"
    },
    {
      "name": "노은",
      "line": "대전 도시철도 1호선",
      "lat": 36.37415,
      "lng": 127.317835,
      "address": "대전광역시 유성구 노은로 지하 161(지족동)"
    },
    {
      "name": "지족",
      "line": "대전 도시철도 1호선",
      "lat": 36.384106,
      "lng": 127.319501,
      "address": "대전광역시 유성구 노은로 273(지족동)"
    },
    {
      "name": "반석",
      "line": "대전 도시철도 1호선",
      "lat": 36.392128,
      "lng": 127.314581,
      "address": "대전광역시 유성구 북유성대로 지하 303(반석동)"
    },
    {
      "name": "까치울",
      "line": "도시철도 7호선",
      "lat": 37.506236,
      "lng": 126.81095,
      "address": "경기도 부천시 원미구 길주로 지하 626 (춘의동)"
    },
    {
      "name": "부천종합운동장",
      "line": "도시철도 7호선",
      "lat": 37.505381,
      "lng": 126.79735,
      "address": "경기도 부천시 원미구 길주로 지하 502 (춘의동)"
    },
    {
      "name": "춘의",
      "line": "도시철도 7호선",
      "lat": 37.50365,
      "lng": 126.787069,
      "address": "경기도 부천시 원미구 길주로 지하 406 (춘의동)"
    },
    {
      "name": "신중동",
      "line": "도시철도 7호선",
      "lat": 37.503081,
      "lng": 126.776161,
      "address": "경기도 부천시 원미구 길주로 지하 314 (중동)"
    },
    {
      "name": "부천시청",
      "line": "도시철도 7호선",
      "lat": 37.504611,
      "lng": 126.763561,
      "address": "경기도 부천시 원미구 길주로 지하 202 (중동)"
    },
    {
      "name": "상동",
      "line": "도시철도 7호선",
      "lat": 37.505769,
      "lng": 126.753081,
      "address": "경기도 부천시 원미구 길주로 지하 104 (상동)"
    },
    {
      "name": "삼산체육관",
      "line": "도시철도 7호선",
      "lat": 37.506431,
      "lng": 126.742081,
      "address": "인천광역시 부평구 길주로 지하 713 (삼산동)"
    },
    {
      "name": "굴포천",
      "line": "도시철도 7호선",
      "lat": 37.50695,
      "lng": 126.731481,
      "address": "인천광역시 부평구 길주로 지하 623 (삼산동)"
    },
    {
      "name": "부평구청",
      "line": "도시철도 7호선",
      "lat": 37.507523,
      "lng": 126.721356,
      "address": "인천광역시 부평구 길주로 지하 527 (갈산동)"
    },
    {
      "name": "산곡",
      "line": "도시철도 7호선",
      "lat": 37.508547,
      "lng": 126.70351,
      "address": "인천광역시 부평구 길주로 지하 379 (산곡동)"
    },
    {
      "name": "석남(거북시장)",
      "line": "도시철도 7호선",
      "lat": 37.506208,
      "lng": 126.676213,
      "address": "인천광역시 서구 길주로 지하 120 (석남동)"
    },
    {
      "name": "부전역",
      "line": "동해선",
      "lat": 35.164668,
      "lng": 129.06011,
      "address": "부산광역시 부산진구 부전로 181"
    },
    {
      "name": "거제해맞이역",
      "line": "동해선",
      "lat": 35.181197,
      "lng": 129.069015,
      "address": "부산광역시 연제구 거제동 619-1"
    },
    {
      "name": "거제역",
      "line": "동해선",
      "lat": 35.18958,
      "lng": 129.074385,
      "address": "부산광역시 연제구 거제동 419-2"
    },
    {
      "name": "교대역",
      "line": "동해선",
      "lat": 35.1938,
      "lng": 129.07958,
      "address": "부산시 연제구 중앙대로 1196"
    },
    {
      "name": "동래역",
      "line": "동해선",
      "lat": 35.204714,
      "lng": 129.0773502,
      "address": "부산광역시 동래구 낙민동 130-4"
    },
    {
      "name": "안락역",
      "line": "동해선",
      "lat": 35.196007,
      "lng": 129.101062,
      "address": "부산광역시 동래구 안락동 201-2"
    },
    {
      "name": "재송역",
      "line": "동해선",
      "lat": 35.188,
      "lng": 129.120109,
      "address": "부산시 해운대구 해운대로 100"
    },
    {
      "name": "센텀역",
      "line": "동해선",
      "lat": 35.1793,
      "lng": 129.1245,
      "address": "부산시 해운대구 해운대로 210"
    },
    {
      "name": "벡스코역",
      "line": "동해선",
      "lat": 35.1717,
      "lng": 129.135958,
      "address": "부산광역시 해운대구 우동 1111-2"
    },
    {
      "name": "신해운대역",
      "line": "동해선",
      "lat": 35.181832,
      "lng": 129.176696,
      "address": "부산시 해운대구 장산로 427"
    },
    {
      "name": "송정역",
      "line": "동해선",
      "lat": 35.187832,
      "lng": 129.202069,
      "address": "부산시 해운대구 해운대로 1147"
    },
    {
      "name": "오시리아역",
      "line": "동해선",
      "lat": 35.196256,
      "lng": 129.208291,
      "address": "부산광역시 기장군 기장읍 당사리 261-8"
    },
    {
      "name": "기장역",
      "line": "동해선",
      "lat": 35.244627,
      "lng": 129.2188951,
      "address": "부산시 기장군 기장읍 차성로288번길 86"
    },
    {
      "name": "일광역",
      "line": "동해선",
      "lat": 35.2675565,
      "lng": 129.2330307,
      "address": "부산광역시 기장군 일광면 이천리 750-4"
    },
    {
      "name": "부산원동역",
      "line": "동해선",
      "lat": 35.1938,
      "lng": 129.113709,
      "address": "부산시 동래구 안락동 52-2"
    },
    {
      "name": "좌천역",
      "line": "동해선",
      "lat": 35.311838,
      "lng": 129.245197,
      "address": "부산시 기장군 장안읍 좌천리 239-4"
    },
    {
      "name": "월내역",
      "line": "동해선",
      "lat": 35.328177,
      "lng": 129.276626,
      "address": "부산시 기장군 장안읍 월내리 141-4"
    },
    {
      "name": "서생역",
      "line": "동해선",
      "lat": 35.346121,
      "lng": 129.29304,
      "address": "울산시 울주군 서생면 화산리 1228-5"
    },
    {
      "name": "남창역",
      "line": "동해선",
      "lat": 35.419713,
      "lng": 129.28223,
      "address": "울산시 울주군 온양읍 남창리 42-36"
    },
    {
      "name": "망양역",
      "line": "동해선",
      "lat": 35.456519,
      "lng": 129.287856,
      "address": "울산시 울주군 온양읍 망양리 484-1"
    },
    {
      "name": "덕하역",
      "line": "동해선",
      "lat": 35.494007,
      "lng": 129.303094,
      "address": "울산시 울주군 청량읍 상남리 533-15"
    },
    {
      "name": "개운포역",
      "line": "동해선",
      "lat": 35.507884,
      "lng": 129.321097,
      "address": "울산시 남구 상개리 97-1"
    },
    {
      "name": "태화강역",
      "line": "동해선",
      "lat": 35.538669,
      "lng": 129.353269,
      "address": "울산광역시 남구 산업로 654"
    },
    {
      "name": "미남",
      "line": "부산 경량도시철도 4호선",
      "lat": 35.20643,
      "lng": 129.06868,
      "address": "부산광역시 동래구 충렬대로 지하 147"
    },
    {
      "name": "동래",
      "line": "부산 경량도시철도 4호선",
      "lat": 35.20466,
      "lng": 129.07741,
      "address": "부산광역시 동래구 온천2동 1486번지"
    },
    {
      "name": "수안",
      "line": "부산 경량도시철도 4호선",
      "lat": 35.20183,
      "lng": 129.08378,
      "address": "부산광역시 동래구 충렬대로 지하 223"
    },
    {
      "name": "낙민",
      "line": "부산 경량도시철도 4호선",
      "lat": 35.20025,
      "lng": 129.09078,
      "address": "부산광역시 동래구 충렬대로 지하 285"
    },
    {
      "name": "충렬사",
      "line": "부산 경량도시철도 4호선",
      "lat": 35.19986,
      "lng": 129.09764,
      "address": "부산광역시 동래구 반송로 지하 205"
    },
    {
      "name": "명장",
      "line": "부산 경량도시철도 4호선",
      "lat": 35.20503,
      "lng": 129.10161,
      "address": "부산광역시 동래구 반송로 지하 281"
    },
    {
      "name": "서동",
      "line": "부산 경량도시철도 4호선",
      "lat": 35.21331,
      "lng": 129.10769,
      "address": "부산광역시 금정구 반송로 지하 387"
    },
    {
      "name": "금사",
      "line": "부산 경량도시철도 4호선",
      "lat": 35.21583,
      "lng": 129.11517,
      "address": "부산광역시 금정구 반송로 지하 465"
    },
    {
      "name": "반여농산물시장",
      "line": "부산 경량도시철도 4호선",
      "lat": 35.21778,
      "lng": 129.12397,
      "address": "부산광역시 해운대구 반송로 550"
    },
    {
      "name": "석대",
      "line": "부산 경량도시철도 4호선",
      "lat": 35.21825,
      "lng": 129.13717,
      "address": "부산광역시 해운대구 석대천로 121"
    },
    {
      "name": "영산대",
      "line": "부산 경량도시철도 4호선",
      "lat": 35.22578,
      "lng": 129.14617,
      "address": "부산광역시 해운대구 반송로 803"
    },
    {
      "name": "윗반송",
      "line": "부산 경량도시철도 4호선",
      "lat": 35.2325,
      "lng": 129.15403,
      "address": "부산광역시 해운대구 반송로 917"
    },
    {
      "name": "고촌",
      "line": "부산 경량도시철도 4호선",
      "lat": 35.23603,
      "lng": 129.1605,
      "address": "부산광역시 기장군 철마면 반송로 991"
    },
    {
      "name": "안평",
      "line": "부산 경량도시철도 4호선",
      "lat": 35.23733,
      "lng": 129.17183,
      "address": "부산광역시 기장군 철마면 반송로 1001"
    },
    {
      "name": "다대포해수욕장",
      "line": "부산 도시철도 1호선",
      "lat": 35.048229,
      "lng": 128.965919,
      "address": "부산광역시 사하구 다대로 지하 692"
    },
    {
      "name": "다대포항",
      "line": "부산 도시철도 1호선",
      "lat": 35.057288,
      "lng": 128.971151,
      "address": "부산광역시 사하구 다대로 지하 548"
    },
    {
      "name": "낫개",
      "line": "부산 도시철도 1호선",
      "lat": 35.065179,
      "lng": 128.979702,
      "address": "부산광역시 사하구 다대로 지하422"
    },
    {
      "name": "신장림",
      "line": "부산 도시철도 1호선",
      "lat": 35.074222,
      "lng": 128.976538,
      "address": "부산광역시 사하구 다대로 지하310"
    },
    {
      "name": "장림",
      "line": "부산 도시철도 1호선",
      "lat": 35.081555,
      "lng": 128.9773083,
      "address": "부산광역시 사하구 다대로 지하230"
    },
    {
      "name": "동매",
      "line": "부산 도시철도 1호선",
      "lat": 35.089819,
      "lng": 128.974029,
      "address": "부산광역시 사하구 신산로 지하168"
    },
    {
      "name": "신평",
      "line": "부산 도시철도 1호선",
      "lat": 35.09556,
      "lng": 128.96056,
      "address": "부산광역시 사하구 하신번영로 140"
    },
    {
      "name": "하단",
      "line": "부산 도시철도 1호선",
      "lat": 35.10611,
      "lng": 128.96667,
      "address": "부산광역시 사하구 낙동남로 지하 1415"
    },
    {
      "name": "당리",
      "line": "부산 도시철도 1호선",
      "lat": 35.10333,
      "lng": 128.97417,
      "address": "부산광역시 사하구 낙동대로 지하 405"
    },
    {
      "name": "사하",
      "line": "부산 도시철도 1호선",
      "lat": 35.09972,
      "lng": 128.98333,
      "address": "부산광역시 사하구 낙동대로 지하 309"
    },
    {
      "name": "괴정",
      "line": "부산 도시철도 1호선",
      "lat": 35.1,
      "lng": 128.9925,
      "address": "부산광역시 사하구 낙동대로 지하 221"
    },
    {
      "name": "대티",
      "line": "부산 도시철도 1호선",
      "lat": 35.10306,
      "lng": 128.99972,
      "address": "부산광역시 사하구 낙동대로 지하 141"
    },
    {
      "name": "서대신",
      "line": "부산 도시철도 1호선",
      "lat": 35.11083,
      "lng": 129.01194,
      "address": "부산광역시 서구 대영로 지하 1"
    },
    {
      "name": "동대신",
      "line": "부산 도시철도 1호선",
      "lat": 35.11056,
      "lng": 129.01757,
      "address": "부산광역시 서구 구덕로 지하 290"
    },